{
  "letters": [
    {
      "id": "56451c001c55",
      "application": "birchanger",
      "date": "2025-11-21",
      "description": "21 WOODFIELDS - COMMENT",
      "lat": 51.9018639,
      "lng": 0.1965533,
      "geocoded": true,
      "geocode_error": null,
      "geocoded_location": "21 WOODFIELDS, Stansted Mountfitchet, Essex, UK"
    },
    {
      "id": "13bf200e4cbe",
      "application": "birchanger",
      "date": "2025-11-21",
      "description": "26 BENTFIELD ROAD - COMMENTS",
      "lat": 51.9047401,
      "lng": 0.1918673,
      "geocoded": true,
      "geocode_error": null,
      "geocoded_location": "26 BENTFIELD ROAD, Stansted Mountfitchet, Essex, UK"
    },
    {
      "id": "62de69162cfb",
      "application": "birchanger",
      "date": "2025-11-21",
      "description": "15 PATMORE ROAD - COMMENTS",
      "lat": 51.8955163,
      "lng": 0.196597,
      "geocoded": true,
      "geocode_error": null,
      "geocoded_location": "15 PATMORE ROAD, Birchanger, Essex, UK"
    },
    {
      "id": "1cbf5c05682a",
      "application": "birchanger",
      "date": "2025-11-21",
      "description": "25 BENTFIELD GARDENS - COMMENTS",
      "lat": 51.9055935,
      "lng": 0.1925602,
      "geocoded": true,
      "geocode_error": null,
      "geocoded_location": "25 BENTFIELD GARDENS, Stansted Mountfitchet, Essex, UK"
    },
    {
      "id": "ec21c2d4cb2d",
      "application": "birchanger",
      "date": "2025-11-21",
      "description": "219 BIRCHANGER LANE - COMMENTS",
      "lat": 51.8730968,
      "lng": 0.1959183,
      "geocoded": true,
      "geocode_error": null,
      "geocoded_location": "219 BIRCHANGER LANE, Birchanger, Essex, UK"
    },
    {
      "id": "91e9a0f74c4d",
      "application": "birchanger",
      "date": "2025-11-21",
      "description": "29 ST JOHNS ROAD - COMMENTS",
      "lat": 51.7002828,
      "lng": 0.1082835,
      "geocoded": true,
      "geocode_error": null,
      "geocoded_location": "29 ST JOHNS ROAD, Essex, UK"
    },
    {
      "id": "e3864976a341",
      "application": "birchanger",
      "date": "2025-11-21",
      "description": "9 QUEENS CLOSE - COMMENTS",
      "lat": 51.9096769,
      "lng": 0.1981846,
      "geocoded": true,
      "geocode_error": null,
      "geocoded_location": "9 QUEENS CLOSE, Stansted Mountfitchet, Essex, UK"
    },
    {
      "id": "3967dc736cdb",
      "application": "birchanger",
      "date": "2025-11-21",
      "description": "ACORNS - COMMENTS",
      "lat": 51.8825,
      "lng": 0.19,
      "geocoded": true,
      "geocode_error": null,
      "geocoded_location": "ACORNS (approx: birchanger village)"
    },
    {
      "id": "98db3e0da284",
      "application": "birchanger",
      "date": "2025-11-21",
      "description": "3 BLYTHWOOD GARDENS - COMMENTS",
      "lat": 51.9010669,
      "lng": 0.1900144,
      "geocoded": true,
      "geocode_error": null,
      "geocoded_location": "3 BLYTHWOOD GARDENS, Stansted Mountfitchet, Essex, UK"
    },
    {
      "id": "4238adfcf726",
      "application": "birchanger",
      "date": "2025-11-21",
      "description": "18 BAYFORD WAY - COMMENTS",
      "lat": 51.8946072,
      "lng": 0.1925026,
      "geocoded": true,
      "geocode_error": null,
      "geocoded_location": "18 BAYFORD WAY, Birchanger, Essex, UK"
    },
    {
      "id": "63610a170ee5",
      "application": "birchanger",
      "date": "2025-11-20",
      "description": "1 FELSTEAD CRESCENT - COMMENTS",
      "lat": 51.8942693,
      "lng": 0.1945805,
      "geocoded": true,
      "geocode_error": null,
      "geocoded_location": "1 FELSTEAD CRESCENT, Birchanger, Essex, UK"
    },
    {
      "id": "0ea6472dd076",
      "application": "birchanger",
      "date": "2025-11-20",
      "description": "55 WOODFIELDS - COMMENTS",
      "lat": 51.9018639,
      "lng": 0.1965533,
      "geocoded": true,
      "geocode_error": null,
      "geocoded_location": "55 WOODFIELDS, Stansted Mountfitchet, Essex, UK"
    },
    {
      "id": "cd4b8f4db323",
      "application": "birchanger",
      "date": "2025-11-20",
      "description": "2 CARTERS DRIVE - COMMENTS",
      "lat": 51.8943642,
      "lng": 0.1941488,
      "geocoded": true,
      "geocode_error": null,
      "geocoded_location": "2 CARTERS DRIVE, Birchanger, Essex, UK"
    },
    {
      "id": "7b5a51212ebc",
      "application": "birchanger",
      "date": "2025-11-20",
      "description": "26 HEATH ROW - COMMENTS",
      "lat": 51.8326037,
      "lng": 1.116546,
      "geocoded": true,
      "geocode_error": null,
      "geocoded_location": "26 HEATH ROW, Essex, UK"
    },
    {
      "id": "6ae1d45e8f74",
      "application": "birchanger",
      "date": "2025-11-20",
      "description": "ACORNS- COMMENTS",
      "lat": 51.8825,
      "lng": 0.19,
      "geocoded": true,
      "geocode_error": null,
      "geocoded_location": "ACORNS (approx: birchanger village)"
    },
    {
      "id": "b27c306ba080",
      "application": "birchanger",
      "date": "2025-11-20",
      "description": "34 HAMPTON ROAD - COMMENTS",
      "lat": 51.8959795,
      "lng": 0.1992127,
      "geocoded": true,
      "geocode_error": null,
      "geocoded_location": "34 HAMPTON ROAD, Birchanger, Essex, UK"
    },
    {
      "id": "5bf31a08549d",
      "application": "birchanger",
      "date": "2025-11-20",
      "description": "2 QUEENS CLOSE - COMMENTS",
      "lat": 51.9096769,
      "lng": 0.1981846,
      "geocoded": true,
      "geocode_error": null,
      "geocoded_location": "2 QUEENS CLOSE, Stansted Mountfitchet, Essex, UK"
    },
    {
      "id": "3d0a88666300",
      "application": "birchanger",
      "date": "2025-11-20",
      "description": "30 NEWELL ROAD - COMMENTS",
      "lat": 51.8937601,
      "lng": 0.1944066,
      "geocoded": true,
      "geocode_error": null,
      "geocoded_location": "30 NEWELL ROAD, Birchanger, Essex, UK"
    },
    {
      "id": "715b7f2be249",
      "application": "birchanger",
      "date": "2025-11-20",
      "description": "33 HIGH VIEW - COMMENTS",
      "lat": 51.885802,
      "lng": 0.1855276,
      "geocoded": true,
      "geocode_error": null,
      "geocoded_location": "33 HIGH VIEW, Birchanger, Essex, UK"
    },
    {
      "id": "610cba1e6775",
      "application": "birchanger",
      "date": "2025-11-20",
      "description": "10 PARK ROAD - COMMENTS",
      "lat": 51.8734235,
      "lng": 0.1943197,
      "geocoded": true,
      "geocode_error": null,
      "geocoded_location": "10 PARK ROAD, Birchanger, Essex, UK"
    },
    {
      "id": "c6beccc5d573",
      "application": "birchanger",
      "date": "2025-11-20",
      "description": "9 PEACHEY WALK - COMMENTS",
      "lat": 51.8942609,
      "lng": 0.2005477,
      "geocoded": true,
      "geocode_error": null,
      "geocoded_location": "9 PEACHEY WALK, Birchanger, Essex, UK"
    },
    {
      "id": "fcebc5d7bdf5",
      "application": "birchanger",
      "date": "2025-11-20",
      "description": "11 THORPE ROAD - COMMENTS",
      "lat": 51.8085311,
      "lng": 1.1548903,
      "geocoded": true,
      "geocode_error": null,
      "geocoded_location": "11 THORPE ROAD, Essex, UK"
    },
    {
      "id": "cbb0e4e9b253",
      "application": "birchanger",
      "date": "2025-11-20",
      "description": "38 BAYFORD WAY - COMMENTS",
      "lat": 51.8946072,
      "lng": 0.1925026,
      "geocoded": true,
      "geocode_error": null,
      "geocoded_location": "38 BAYFORD WAY, Birchanger, Essex, UK"
    },
    {
      "id": "188bacc2929c",
      "application": "birchanger",
      "date": "2025-11-20",
      "description": "26 NEWELL ROAD - COMMENTS",
      "lat": 51.8937601,
      "lng": 0.1944066,
      "geocoded": true,
      "geocode_error": null,
      "geocoded_location": "26 NEWELL ROAD, Birchanger, Essex, UK"
    },
    {
      "id": "cbc1a53d1ccd",
      "application": "birchanger",
      "date": "2025-11-19",
      "description": "18 HIGH VIEW - COMMENTS",
      "lat": 51.885802,
      "lng": 0.1855276,
      "geocoded": true,
      "geocode_error": null,
      "geocoded_location": "18 HIGH VIEW, Birchanger, Essex, UK"
    },
    {
      "id": "979e78c39d56",
      "application": "birchanger",
      "date": "2025-11-19",
      "description": "46 THE STOW - COMMENTS",
      "lat": 51.7758214,
      "lng": 0.1145585,
      "geocoded": true,
      "geocode_error": null,
      "geocoded_location": "46 THE STOW, Essex, UK"
    },
    {
      "id": "0456d3088cbf",
      "application": "birchanger",
      "date": "2025-11-19",
      "description": "39 HIGH VIEW - COMMENTS",
      "lat": 51.885802,
      "lng": 0.1855276,
      "geocoded": true,
      "geocode_error": null,
      "geocoded_location": "39 HIGH VIEW, Birchanger, Essex, UK"
    },
    {
      "id": "1ac23bd6282b",
      "application": "birchanger",
      "date": "2025-11-19",
      "description": "26 LIVINGS WAY - COMMENTS",
      "lat": 51.8944529,
      "lng": 0.1972588,
      "geocoded": true,
      "geocode_error": null,
      "geocoded_location": "26 LIVINGS WAY, Birchanger, Essex, UK"
    },
    {
      "id": "ff4d807b28ac",
      "application": "birchanger",
      "date": "2025-11-19",
      "description": "30 NEWELL ROAD - COMMENTS",
      "lat": 51.8937601,
      "lng": 0.1944066,
      "geocoded": true,
      "geocode_error": null,
      "geocoded_location": "30 NEWELL ROAD, Birchanger, Essex, UK"
    },
    {
      "id": "79d6ce4417ce",
      "application": "birchanger",
      "date": "2025-11-19",
      "description": "4 HILLSIDE END - COMMENTS",
      "lat": 51.8873788,
      "lng": 0.1852741,
      "geocoded": true,
      "geocode_error": null,
      "geocoded_location": "4 HILLSIDE END, Birchanger, Essex, UK"
    },
    {
      "id": "e753e47e1e4f",
      "application": "birchanger",
      "date": "2025-11-19",
      "description": "47 SUNNYSIDE - COMMENTS",
      "lat": 51.9015859,
      "lng": 0.1974121,
      "geocoded": true,
      "geocode_error": null,
      "geocoded_location": "47 SUNNYSIDE, Stansted Mountfitchet, Essex, UK"
    },
    {
      "id": "0526bca86deb",
      "application": "birchanger",
      "date": "2025-11-19",
      "description": "38 BAYFORD WAY - COMMENTS",
      "lat": 51.8946072,
      "lng": 0.1925026,
      "geocoded": true,
      "geocode_error": null,
      "geocoded_location": "38 BAYFORD WAY, Birchanger, Essex, UK"
    },
    {
      "id": "681dfa8acbaf",
      "application": "birchanger",
      "date": "2025-11-19",
      "description": "8 CHURCHILL CORNER - COMMENTS",
      "lat": 51.8938234,
      "lng": 0.2037604,
      "geocoded": true,
      "geocode_error": null,
      "geocoded_location": "CHURCHILL CORNER, Birchanger, Essex, UK"
    },
    {
      "id": "448aaaaea3dc",
      "application": "birchanger",
      "date": "2025-11-19",
      "description": "46 BLYTHWOOD GARDENS - COMMENTS",
      "lat": 51.9010669,
      "lng": 0.1900144,
      "geocoded": true,
      "geocode_error": null,
      "geocoded_location": "46 BLYTHWOOD GARDENS, Stansted Mountfitchet, Essex, UK"
    },
    {
      "id": "234153ed3a20",
      "application": "birchanger",
      "date": "2025-11-19",
      "description": "42 HAMPTON ROAD - COMMENTS",
      "lat": 51.8959795,
      "lng": 0.1992127,
      "geocoded": true,
      "geocode_error": null,
      "geocoded_location": "42 HAMPTON ROAD, Birchanger, Essex, UK"
    },
    {
      "id": "ed81923e3c8a",
      "application": "birchanger",
      "date": "2025-11-18",
      "description": "18 BRADLEY COMMON - COMMENTS",
      "lat": 51.8864386,
      "lng": 0.1852188,
      "geocoded": true,
      "geocode_error": null,
      "geocoded_location": "18 BRADLEY COMMON, Birchanger, Essex, UK"
    },
    {
      "id": "8d071d76bd51",
      "application": "birchanger",
      "date": "2025-11-18",
      "description": "1 HILLSIDE END - COMMENTS",
      "lat": 51.8873788,
      "lng": 0.1852741,
      "geocoded": true,
      "geocode_error": null,
      "geocoded_location": "1 HILLSIDE END, Birchanger, Essex, UK"
    },
    {
      "id": "2333e490aedb",
      "application": "birchanger",
      "date": "2025-11-18",
      "description": "93 BIRCHANGER LANE - COMMENTS",
      "lat": 51.8730968,
      "lng": 0.1959183,
      "geocoded": true,
      "geocode_error": null,
      "geocoded_location": "93 BIRCHANGER LANE, Birchanger, Essex, UK"
    },
    {
      "id": "f3274e27bb22",
      "application": "birchanger",
      "date": "2025-11-18",
      "description": "2 SHAW CLOSE - COMMENTS",
      "lat": 51.8965647,
      "lng": 0.19697,
      "geocoded": true,
      "geocode_error": null,
      "geocoded_location": "2 SHAW CLOSE, Stansted Mountfitchet, Essex, UK"
    },
    {
      "id": "5a50a1d090f2",
      "application": "birchanger",
      "date": "2025-11-18",
      "description": "223 BIRCHANGER LANE - COMMENTS",
      "lat": 51.8730968,
      "lng": 0.1959183,
      "geocoded": true,
      "geocode_error": null,
      "geocoded_location": "223 BIRCHANGER LANE, Birchanger, Essex, UK"
    },
    {
      "id": "ac617f56e894",
      "application": "birchanger",
      "date": "2025-11-17",
      "description": "15 BRADLEY COMMON - COMMENTS",
      "lat": 51.8864386,
      "lng": 0.1852188,
      "geocoded": true,
      "geocode_error": null,
      "geocoded_location": "15 BRADLEY COMMON, Birchanger, Essex, UK"
    },
    {
      "id": "914812f3e52b",
      "application": "birchanger",
      "date": "2025-11-17",
      "description": "13 HARRISONS - COMMENTS",
      "lat": 51.882497,
      "lng": 0.1892625,
      "geocoded": true,
      "geocode_error": null,
      "geocoded_location": "13 HARRISONS, Birchanger, Essex, UK"
    },
    {
      "id": "3b60d2dfec4e",
      "application": "birchanger",
      "date": "2025-11-17",
      "description": "40 WOODLAND VIEW - COMMENTS",
      "lat": 51.9185305,
      "lng": 0.2223294,
      "geocoded": true,
      "geocode_error": null,
      "geocoded_location": "40 WOODLAND VIEW, Essex, UK"
    },
    {
      "id": "267208e3758c",
      "application": "birchanger",
      "date": "2025-11-17",
      "description": "HERNE HOUSE, 68 BIRCHANGER LANE - 1 COMMENTS",
      "lat": 51.8732119,
      "lng": 0.1952944,
      "geocoded": true,
      "geocode_error": null,
      "geocoded_location": "68 BIRCHANGER LANE, Birchanger, Essex, UK"
    },
    {
      "id": "f7618a2616fb",
      "application": "birchanger",
      "date": "2025-11-17",
      "description": "HERNE HOUSE, 68 BIRCHANGER LANE - 2 COMMENTS",
      "lat": 51.8732119,
      "lng": 0.1952944,
      "geocoded": true,
      "geocode_error": null,
      "geocoded_location": "68 BIRCHANGER LANE, Birchanger, Essex, UK"
    },
    {
      "id": "2093ac5f67bf",
      "application": "birchanger",
      "date": "2025-11-17",
      "description": "28 PALMER CLOSE - COMMENTS",
      "lat": 51.8941736,
      "lng": 0.202891,
      "geocoded": true,
      "geocode_error": null,
      "geocoded_location": "28 PALMER CLOSE, Birchanger, Essex, UK"
    },
    {
      "id": "d6be1362be20",
      "application": "birchanger",
      "date": "2025-11-17",
      "description": "32 BIRCHANGER LANE - COMMENTS",
      "lat": 51.8730968,
      "lng": 0.1959183,
      "geocoded": true,
      "geocode_error": null,
      "geocoded_location": "32 BIRCHANGER LANE, Birchanger, Essex, UK"
    },
    {
      "id": "db081a44b3ce",
      "application": "birchanger",
      "date": "2025-11-17",
      "description": "2 GREENFIELDS - COMMENTS",
      "lat": 51.9035085,
      "lng": 0.1954159,
      "geocoded": true,
      "geocode_error": null,
      "geocoded_location": "2 GREENFIELDS, Stansted Mountfitchet, Essex, UK"
    },
    {
      "id": "ed1f6d3a9633",
      "application": "birchanger",
      "date": "2025-11-17",
      "description": "HOLLY HOUSE - COMMENTS",
      "lat": 51.8825,
      "lng": 0.19,
      "geocoded": true,
      "geocode_error": null,
      "geocoded_location": "HOLLY HOUSE (approx: birchanger village)"
    },
    {
      "id": "b01a15bab4c1",
      "application": "birchanger",
      "date": "2025-11-17",
      "description": "24 OLD BELL CLOSE - COMMENTS",
      "lat": 51.8992882,
      "lng": 0.1928404,
      "geocoded": true,
      "geocode_error": null,
      "geocoded_location": "24 OLD BELL CLOSE, Stansted Mountfitchet, Essex, UK"
    },
    {
      "id": "820082b3a454",
      "application": "birchanger",
      "date": "2025-11-17",
      "description": "MOLE LODGE - COMMENTS",
      "lat": 51.8825,
      "lng": 0.19,
      "geocoded": true,
      "geocode_error": null,
      "geocoded_location": "MOLE LODGE (approx: birchanger village)"
    },
    {
      "id": "54a891999a2e",
      "application": "birchanger",
      "date": "2025-11-17",
      "description": "18 BRADLEY COMMON - COMMENTS",
      "lat": 51.8864386,
      "lng": 0.1852188,
      "geocoded": true,
      "geocode_error": null,
      "geocoded_location": "18 BRADLEY COMMON, Birchanger, Essex, UK"
    },
    {
      "id": "f95290dd7a1e",
      "application": "birchanger",
      "date": "2025-11-17",
      "description": "30 BIRCHANGER LANE - COMMENTS",
      "lat": 51.8730968,
      "lng": 0.1959183,
      "geocoded": true,
      "geocode_error": null,
      "geocoded_location": "30 BIRCHANGER LANE, Birchanger, Essex, UK"
    },
    {
      "id": "513a3f428478",
      "application": "birchanger",
      "date": "2025-11-16",
      "description": "HOLLY HOUSE - COMMENTS",
      "lat": 51.8825,
      "lng": 0.19,
      "geocoded": true,
      "geocode_error": null,
      "geocoded_location": "HOLLY HOUSE (approx: birchanger village)"
    },
    {
      "id": "0e1166703d49",
      "application": "birchanger",
      "date": "2025-11-16",
      "description": "40 WOODLAND VIEW - COMMENTS",
      "lat": 51.9185305,
      "lng": 0.2223294,
      "geocoded": true,
      "geocode_error": null,
      "geocoded_location": "40 WOODLAND VIEW, Essex, UK"
    },
    {
      "id": "a4751165b3bd",
      "application": "birchanger",
      "date": "2025-11-16",
      "description": "9 OLD BELL CLOSE - COMMENTS",
      "lat": 51.8992882,
      "lng": 0.1928404,
      "geocoded": true,
      "geocode_error": null,
      "geocoded_location": "9 OLD BELL CLOSE, Stansted Mountfitchet, Essex, UK"
    },
    {
      "id": "a5707a5365fd",
      "application": "birchanger",
      "date": "2025-11-16",
      "description": "24 OLD BELL CLOSE - COMMENTS",
      "lat": 51.8992882,
      "lng": 0.1928404,
      "geocoded": true,
      "geocode_error": null,
      "geocoded_location": "24 OLD BELL CLOSE, Stansted Mountfitchet, Essex, UK"
    },
    {
      "id": "8d8f302c0739",
      "application": "birchanger",
      "date": "2025-11-16",
      "description": "86 BIRCHANGER LANE - COMMENTS",
      "lat": 51.8730968,
      "lng": 0.1959183,
      "geocoded": true,
      "geocode_error": null,
      "geocoded_location": "86 BIRCHANGER LANE, Birchanger, Essex, UK"
    },
    {
      "id": "d709d227eab1",
      "application": "birchanger",
      "date": "2025-11-16",
      "description": "11 HARRISONS - COMMENTS",
      "lat": 51.882497,
      "lng": 0.1892625,
      "geocoded": true,
      "geocode_error": null,
      "geocoded_location": "11 HARRISONS, Birchanger, Essex, UK"
    },
    {
      "id": "3f064daf604c",
      "application": "birchanger",
      "date": "2025-11-16",
      "description": "BOREEN - COMMENTS",
      "lat": 51.8825,
      "lng": 0.19,
      "geocoded": true,
      "geocode_error": null,
      "geocoded_location": "BOREEN (approx: birchanger village)"
    },
    {
      "id": "a6804593c0a3",
      "application": "birchanger",
      "date": "2025-11-16",
      "description": "41B HIGH VIEW - COMMENTS",
      "lat": 51.885802,
      "lng": 0.1855276,
      "geocoded": true,
      "geocode_error": null,
      "geocoded_location": "41B HIGH VIEW, Birchanger, Essex, UK"
    },
    {
      "id": "9d3af7bef790",
      "application": "birchanger",
      "date": "2025-11-15",
      "description": "28 PALMER CLOSE - COMMENTS",
      "lat": 51.8941736,
      "lng": 0.202891,
      "geocoded": true,
      "geocode_error": null,
      "geocoded_location": "28 PALMER CLOSE, Birchanger, Essex, UK"
    },
    {
      "id": "c8fc7b422a66",
      "application": "birchanger",
      "date": "2025-11-15",
      "description": "91 BIRCHANGER LANE - COMMENTS",
      "lat": 51.8730968,
      "lng": 0.1959183,
      "geocoded": true,
      "geocode_error": null,
      "geocoded_location": "91 BIRCHANGER LANE, Birchanger, Essex, UK"
    },
    {
      "id": "c6d9f2e47159",
      "application": "birchanger",
      "date": "2025-11-15",
      "description": "2 CORN ROAD - COMMENTS",
      "lat": 51.9231918,
      "lng": 0.2564613,
      "geocoded": true,
      "geocode_error": null,
      "geocoded_location": "CORN ROAD, Essex, UK"
    },
    {
      "id": "9c7d8ae36c06",
      "application": "birchanger",
      "date": "2025-11-15",
      "description": "11A CHAPEL HILL - COMMENTS",
      "lat": 51.9037639,
      "lng": 0.193283,
      "geocoded": true,
      "geocode_error": null,
      "geocoded_location": "11A CHAPEL HILL, Stansted Mountfitchet, Essex, UK"
    },
    {
      "id": "42f710ffb036",
      "application": "birchanger",
      "date": "2025-11-15",
      "description": "26 HIGH VIEW - COMMENTS",
      "lat": 51.885802,
      "lng": 0.1855276,
      "geocoded": true,
      "geocode_error": null,
      "geocoded_location": "26 HIGH VIEW, Birchanger, Essex, UK"
    },
    {
      "id": "2dc8a37f6e5c",
      "application": "birchanger",
      "date": "2025-11-14",
      "description": "12 WOODFIELDS - COMMENTS",
      "lat": 51.9018639,
      "lng": 0.1965533,
      "geocoded": true,
      "geocode_error": null,
      "geocoded_location": "12 WOODFIELDS, Stansted Mountfitchet, Essex, UK"
    },
    {
      "id": "76cdec2f818f",
      "application": "birchanger",
      "date": "2025-11-14",
      "description": "217 BIRCHANGER LANE - COMMENTS",
      "lat": 51.8730968,
      "lng": 0.1959183,
      "geocoded": true,
      "geocode_error": null,
      "geocoded_location": "217 BIRCHANGER LANE, Birchanger, Essex, UK"
    },
    {
      "id": "010d71885aa8",
      "application": "birchanger",
      "date": "2025-11-13",
      "description": "217 BIRCHANGER LANE - COMMENTS",
      "lat": 51.8730968,
      "lng": 0.1959183,
      "geocoded": true,
      "geocode_error": null,
      "geocoded_location": "217 BIRCHANGER LANE, Birchanger, Essex, UK"
    },
    {
      "id": "393923f8fe24",
      "application": "stansted",
      "date": "2025-11-21",
      "description": "21 WOODFIELDS - COMMENT",
      "lat": 51.9018639,
      "lng": 0.1965533,
      "geocoded": true,
      "geocode_error": null,
      "geocoded_location": "21 WOODFIELDS, Stansted Mountfitchet, Essex, UK"
    },
    {
      "id": "0116a2e03282",
      "application": "stansted",
      "date": "2025-11-21",
      "description": "33 HIGH VIEW - COMMENTS",
      "lat": 51.885802,
      "lng": 0.1855276,
      "geocoded": true,
      "geocode_error": null,
      "geocoded_location": "33 HIGH VIEW, Birchanger, Essex, UK"
    },
    {
      "id": "3712e2a67451",
      "application": "stansted",
      "date": "2025-11-21",
      "description": "26 BENTFIELD ROAD - COMMENTS",
      "lat": 51.9047401,
      "lng": 0.1918673,
      "geocoded": true,
      "geocode_error": null,
      "geocoded_location": "26 BENTFIELD ROAD, Stansted Mountfitchet, Essex, UK"
    },
    {
      "id": "037b314c892c",
      "application": "stansted",
      "date": "2025-11-21",
      "description": "25 BENTFIELD GARDENS - COMMENTS",
      "lat": 51.9055935,
      "lng": 0.1925602,
      "geocoded": true,
      "geocode_error": null,
      "geocoded_location": "25 BENTFIELD GARDENS, Stansted Mountfitchet, Essex, UK"
    },
    {
      "id": "4bccb300fd8d",
      "application": "stansted",
      "date": "2025-11-21",
      "description": "219 BIRCHANGER LANE - COMMENTS",
      "lat": 51.8730968,
      "lng": 0.1959183,
      "geocoded": true,
      "geocode_error": null,
      "geocoded_location": "219 BIRCHANGER LANE, Birchanger, Essex, UK"
    },
    {
      "id": "a7b677b5215d",
      "application": "stansted",
      "date": "2025-11-21",
      "description": "9 QUEENS CLOSE - COMMENTS",
      "lat": 51.9096769,
      "lng": 0.1981846,
      "geocoded": true,
      "geocode_error": null,
      "geocoded_location": "9 QUEENS CLOSE, Stansted Mountfitchet, Essex, UK"
    },
    {
      "id": "35d53829fe68",
      "application": "stansted",
      "date": "2025-11-21",
      "description": "ACORNS - COMMENTS",
      "lat": 51.898,
      "lng": 0.197,
      "geocoded": true,
      "geocode_error": null,
      "geocoded_location": "ACORNS (approx: stansted village)"
    },
    {
      "id": "5f767ea4cba6",
      "application": "stansted",
      "date": "2025-11-21",
      "description": "3 BLYTHWOOD GARDENS - COMMENTS",
      "lat": 51.9013944,
      "lng": 0.1905997,
      "geocoded": true,
      "geocode_error": null,
      "geocoded_location": "3 BLYTHWOOD GARDENS, Stansted Mountfitchet, Essex, UK"
    },
    {
      "id": "691b8db8b98a",
      "application": "stansted",
      "date": "2025-11-21",
      "description": "18 BAYFORD WAY - COMMENTS",
      "lat": 51.8946072,
      "lng": 0.1925026,
      "geocoded": true,
      "geocode_error": null,
      "geocoded_location": "18 BAYFORD WAY, Stansted Mountfitchet, Essex, UK"
    },
    {
      "id": "f99ddf7f586c",
      "application": "stansted",
      "date": "2025-11-20",
      "description": "2 CARTERS DRIVE - COMMENTS",
      "lat": 51.8943642,
      "lng": 0.1941488,
      "geocoded": true,
      "geocode_error": null,
      "geocoded_location": "2 CARTERS DRIVE, Stansted Mountfitchet, Essex, UK"
    },
    {
      "id": "f0452cf4085f",
      "application": "stansted",
      "date": "2025-11-20",
      "description": "2 MILLSIDE - COMMENTS",
      "lat": null,
      "lng": null,
      "geocoded": false,
      "geocode_error": "geocoding_failed"
    },
    {
      "id": "5c2a00726a11",
      "application": "stansted",
      "date": "2025-11-20",
      "description": "26 HEATH ROW - COMMENTS",
      "lat": 51.8326037,
      "lng": 1.116546,
      "geocoded": true,
      "geocode_error": null,
      "geocoded_location": "26 HEATH ROW, Essex, UK"
    },
    {
      "id": "0ddbdf582955",
      "application": "stansted",
      "date": "2025-11-20",
      "description": "ACORNS- COMMENTS",
      "lat": 51.898,
      "lng": 0.197,
      "geocoded": true,
      "geocode_error": null,
      "geocoded_location": "ACORNS (approx: stansted village)"
    },
    {
      "id": "9f2c548cdbbf",
      "application": "stansted",
      "date": "2025-11-20",
      "description": "34 HAMPTON ROAD - COMMENTS",
      "lat": 51.8959795,
      "lng": 0.1992127,
      "geocoded": true,
      "geocode_error": null,
      "geocoded_location": "34 HAMPTON ROAD, Stansted Mountfitchet, Essex, UK"
    },
    {
      "id": "5798902908d1",
      "application": "stansted",
      "date": "2025-11-20",
      "description": "1 THE MEADS - COMMENTS",
      "lat": 51.9768771,
      "lng": 0.1761565,
      "geocoded": true,
      "geocode_error": null,
      "geocoded_location": "1 THE MEADS, Essex, UK"
    },
    {
      "id": "91336c5691c5",
      "application": "stansted",
      "date": "2025-11-20",
      "description": "2 QUEENS CLOSE - COMMENTS",
      "lat": 51.9096769,
      "lng": 0.1981846,
      "geocoded": true,
      "geocode_error": null,
      "geocoded_location": "2 QUEENS CLOSE, Stansted Mountfitchet, Essex, UK"
    },
    {
      "id": "3084fdf3c159",
      "application": "stansted",
      "date": "2025-11-20",
      "description": "30 NEWELL ROAD - COMMENTS",
      "lat": 51.8937601,
      "lng": 0.1944066,
      "geocoded": true,
      "geocode_error": null,
      "geocoded_location": "30 NEWELL ROAD, Stansted Mountfitchet, Essex, UK"
    },
    {
      "id": "8f5504172e0a",
      "application": "stansted",
      "date": "2025-11-20",
      "description": "10 PARK ROAD - COMMENTS",
      "lat": 51.8998821,
      "lng": 0.2001617,
      "geocoded": true,
      "geocode_error": null,
      "geocoded_location": "10 PARK ROAD, Stansted Mountfitchet, Essex, UK"
    },
    {
      "id": "c3e0f74cdc40",
      "application": "stansted",
      "date": "2025-11-20",
      "description": "9 PEACHEY WALK - COMMENTS",
      "lat": 51.8942609,
      "lng": 0.2005477,
      "geocoded": true,
      "geocode_error": null,
      "geocoded_location": "9 PEACHEY WALK, Stansted Mountfitchet, Essex, UK"
    },
    {
      "id": "6e32a89df62d",
      "application": "stansted",
      "date": "2025-11-20",
      "description": "11 THORPE ROAD - COMMENTS",
      "lat": 51.8085311,
      "lng": 1.1548903,
      "geocoded": true,
      "geocode_error": null,
      "geocoded_location": "11 THORPE ROAD, Essex, UK"
    },
    {
      "id": "cdda8ebff5c1",
      "application": "stansted",
      "date": "2025-11-20",
      "description": "38 BAYFORD WAY - COMMENTS",
      "lat": 51.8946072,
      "lng": 0.1925026,
      "geocoded": true,
      "geocode_error": null,
      "geocoded_location": "38 BAYFORD WAY, Stansted Mountfitchet, Essex, UK"
    },
    {
      "id": "3de24b27d141",
      "application": "stansted",
      "date": "2025-11-20",
      "description": "26 NEWELL ROAD - COMMENTS",
      "lat": 51.8937601,
      "lng": 0.1944066,
      "geocoded": true,
      "geocode_error": null,
      "geocoded_location": "26 NEWELL ROAD, Stansted Mountfitchet, Essex, UK"
    },
    {
      "id": "9e63af945800",
      "application": "stansted",
      "date": "2025-11-19",
      "description": "18 HIGH VIEW - COMMENTS",
      "lat": 51.885802,
      "lng": 0.1855276,
      "geocoded": true,
      "geocode_error": null,
      "geocoded_location": "18 HIGH VIEW, Birchanger, Essex, UK"
    },
    {
      "id": "ccf4c724a3fb",
      "application": "stansted",
      "date": "2025-11-19",
      "description": "46 THE STOW - COMMENTS",
      "lat": 51.7758214,
      "lng": 0.1145585,
      "geocoded": true,
      "geocode_error": null,
      "geocoded_location": "46 THE STOW, Essex, UK"
    },
    {
      "id": "fb856e405023",
      "application": "stansted",
      "date": "2025-11-19",
      "description": "26 LIVINGS WAY - COMMENTS",
      "lat": 51.8944529,
      "lng": 0.1972588,
      "geocoded": true,
      "geocode_error": null,
      "geocoded_location": "26 LIVINGS WAY, Stansted Mountfitchet, Essex, UK"
    },
    {
      "id": "926c311baa27",
      "application": "stansted",
      "date": "2025-11-19",
      "description": "30 NEWELL ROAD - COMMENTS",
      "lat": 51.8937601,
      "lng": 0.1944066,
      "geocoded": true,
      "geocode_error": null,
      "geocoded_location": "30 NEWELL ROAD, Stansted Mountfitchet, Essex, UK"
    },
    {
      "id": "2f0a89c86df2",
      "application": "stansted",
      "date": "2025-11-19",
      "description": "4 HILLSIDE END - COMMENTS",
      "lat": 51.8873788,
      "lng": 0.1852741,
      "geocoded": true,
      "geocode_error": null,
      "geocoded_location": "4 HILLSIDE END, Birchanger, Essex, UK"
    },
    {
      "id": "1795939327e0",
      "application": "stansted",
      "date": "2025-11-19",
      "description": "47 SUNNYSIDE - COMMENTS",
      "lat": 51.9015859,
      "lng": 0.1974121,
      "geocoded": true,
      "geocode_error": null,
      "geocoded_location": "47 SUNNYSIDE, Stansted Mountfitchet, Essex, UK"
    },
    {
      "id": "a0b6487c10c6",
      "application": "stansted",
      "date": "2025-11-19",
      "description": "38 BAYFORD WAY - COMMENTS",
      "lat": 51.8946072,
      "lng": 0.1925026,
      "geocoded": true,
      "geocode_error": null,
      "geocoded_location": "38 BAYFORD WAY, Stansted Mountfitchet, Essex, UK"
    },
    {
      "id": "bce0a62b6d9a",
      "application": "stansted",
      "date": "2025-11-19",
      "description": "8 CHURCHILL CORNER - COMMENTS",
      "lat": 51.8938234,
      "lng": 0.2037604,
      "geocoded": true,
      "geocode_error": null,
      "geocoded_location": "CHURCHILL CORNER, Stansted Mountfitchet, Essex, UK"
    },
    {
      "id": "04c56ef6659c",
      "application": "stansted",
      "date": "2025-11-19",
      "description": "46 BLYTHWOOD GARDENS - COMMENTS",
      "lat": 51.9013944,
      "lng": 0.1905997,
      "geocoded": true,
      "geocode_error": null,
      "geocoded_location": "46 BLYTHWOOD GARDENS, Stansted Mountfitchet, Essex, UK"
    },
    {
      "id": "49b7aee27721",
      "application": "stansted",
      "date": "2025-11-19",
      "description": "42 HAMPTON ROAD - COMMENTS",
      "lat": 51.8959795,
      "lng": 0.1992127,
      "geocoded": true,
      "geocode_error": null,
      "geocoded_location": "42 HAMPTON ROAD, Stansted Mountfitchet, Essex, UK"
    },
    {
      "id": "920849f05fd4",
      "application": "stansted",
      "date": "2025-11-19",
      "description": "9 GROVE HILL - COMMENTS",
      "lat": 51.903574,
      "lng": 0.203468,
      "geocoded": true,
      "geocode_error": null,
      "geocoded_location": "9 GROVE HILL, Stansted Mountfitchet, Essex, UK"
    },
    {
      "id": "8c94065c474f",
      "application": "stansted",
      "date": "2025-11-19",
      "description": "15 PATMORE ROAD - COMMENTS",
      "lat": 51.8955163,
      "lng": 0.196597,
      "geocoded": true,
      "geocode_error": null,
      "geocoded_location": "15 PATMORE ROAD, Stansted Mountfitchet, Essex, UK"
    },
    {
      "id": "77bba65cea4f",
      "application": "stansted",
      "date": "2025-11-19",
      "description": "29 ST JOHNS ROAD - COMMENTS",
      "lat": 51.7002828,
      "lng": 0.1082835,
      "geocoded": true,
      "geocode_error": null,
      "geocoded_location": "29 ST JOHNS ROAD, Essex, UK"
    },
    {
      "id": "2ee51760fda7",
      "application": "stansted",
      "date": "2025-11-18",
      "description": "18 BRADLEY COMMON - COMMENTS",
      "lat": 51.8864386,
      "lng": 0.1852188,
      "geocoded": true,
      "geocode_error": null,
      "geocoded_location": "18 BRADLEY COMMON, Birchanger, Essex, UK"
    },
    {
      "id": "c08c707a79f8",
      "application": "stansted",
      "date": "2025-11-18",
      "description": "35 PEACHEY WALK - COMMENTS",
      "lat": 51.8942609,
      "lng": 0.2005477,
      "geocoded": true,
      "geocode_error": null,
      "geocoded_location": "35 PEACHEY WALK, Stansted Mountfitchet, Essex, UK"
    },
    {
      "id": "80dc62a19171",
      "application": "stansted",
      "date": "2025-11-18",
      "description": "7 PEACHEY WALK - COMMENTS",
      "lat": 51.8942609,
      "lng": 0.2005477,
      "geocoded": true,
      "geocode_error": null,
      "geocoded_location": "7 PEACHEY WALK, Stansted Mountfitchet, Essex, UK"
    },
    {
      "id": "f00c0c5a92df",
      "application": "stansted",
      "date": "2025-11-18",
      "description": "2 SHAW CLOSE - COMMENTS",
      "lat": 51.8965647,
      "lng": 0.19697,
      "geocoded": true,
      "geocode_error": null,
      "geocoded_location": "2 SHAW CLOSE, Stansted Mountfitchet, Essex, UK"
    },
    {
      "id": "4e7419ec433d",
      "application": "stansted",
      "date": "2025-11-18",
      "description": "223 BIRCHANGER LANE - COMMENTS",
      "lat": 51.8730968,
      "lng": 0.1959183,
      "geocoded": true,
      "geocode_error": null,
      "geocoded_location": "223 BIRCHANGER LANE, Birchanger, Essex, UK"
    },
    {
      "id": "a270609708b0",
      "application": "stansted",
      "date": "2025-11-17",
      "description": "55 WOODFIELDS - COMMENTS",
      "lat": 51.9018639,
      "lng": 0.1965533,
      "geocoded": true,
      "geocode_error": null,
      "geocoded_location": "55 WOODFIELDS, Stansted Mountfitchet, Essex, UK"
    },
    {
      "id": "ea59e94a01a7",
      "application": "stansted",
      "date": "2025-11-17",
      "description": "15 BRADLEY COMMON - COMMENTS",
      "lat": 51.8864386,
      "lng": 0.1852188,
      "geocoded": true,
      "geocode_error": null,
      "geocoded_location": "15 BRADLEY COMMON, Birchanger, Essex, UK"
    },
    {
      "id": "da73428acd33",
      "application": "stansted",
      "date": "2025-11-17",
      "description": "13 HARRISONS - COMMENTS",
      "lat": 51.882497,
      "lng": 0.1892625,
      "geocoded": true,
      "geocode_error": null,
      "geocoded_location": "13 HARRISONS, Birchanger, Essex, UK"
    },
    {
      "id": "a105d552d423",
      "application": "stansted",
      "date": "2025-11-17",
      "description": "HERNE HOUSE, 68 BIRCHANGER LANE - 2 COMMENTS",
      "lat": 51.8730968,
      "lng": 0.1959183,
      "geocoded": true,
      "geocode_error": null,
      "geocoded_location": "68 BIRCHANGER LANE, Birchanger, Essex, UK"
    },
    {
      "id": "c9961e73c479",
      "application": "stansted",
      "date": "2025-11-17",
      "description": "HERNE HOUSE, 68 BIRCHANGER LANE - 1 COMMENTS",
      "lat": 51.8730968,
      "lng": 0.1959183,
      "geocoded": true,
      "geocode_error": null,
      "geocoded_location": "68 BIRCHANGER LANE, Birchanger, Essex, UK"
    },
    {
      "id": "f8b27fd85ba0",
      "application": "stansted",
      "date": "2025-11-17",
      "description": "40 WOODLAND VIEW - COMMENTS",
      "lat": 51.9185305,
      "lng": 0.2223294,
      "geocoded": true,
      "geocode_error": null,
      "geocoded_location": "40 WOODLAND VIEW, Essex, UK"
    },
    {
      "id": "b96751505013",
      "application": "stansted",
      "date": "2025-11-17",
      "description": "11A CHAPEL HILL - COMMENTS",
      "lat": 51.9026878,
      "lng": 0.1964086,
      "geocoded": true,
      "geocode_error": null,
      "geocoded_location": "11A CHAPEL HILL, Stansted Mountfitchet, Essex, UK"
    },
    {
      "id": "7cb7140ae108",
      "application": "stansted",
      "date": "2025-11-17",
      "description": "32 BIRCHANGER LANE - COMMENTS",
      "lat": 51.8730968,
      "lng": 0.1959183,
      "geocoded": true,
      "geocode_error": null,
      "geocoded_location": "32 BIRCHANGER LANE, Birchanger, Essex, UK"
    },
    {
      "id": "08c0bf3c51ac",
      "application": "stansted",
      "date": "2025-11-17",
      "description": "HOLLY HOUSE - COMMENTS",
      "lat": 51.898,
      "lng": 0.197,
      "geocoded": true,
      "geocode_error": null,
      "geocoded_location": "HOLLY HOUSE (approx: stansted village)"
    },
    {
      "id": "4af93eae26af",
      "application": "stansted",
      "date": "2025-11-17",
      "description": "24 OLD BELL CLOSE - COMMENTS",
      "lat": 51.8992882,
      "lng": 0.1928404,
      "geocoded": true,
      "geocode_error": null,
      "geocoded_location": "24 OLD BELL CLOSE, Stansted Mountfitchet, Essex, UK"
    },
    {
      "id": "d3f4e6c25be2",
      "application": "stansted",
      "date": "2025-11-17",
      "description": "MOLE LODGE - COMMENTS",
      "lat": 51.898,
      "lng": 0.197,
      "geocoded": true,
      "geocode_error": null,
      "geocoded_location": "MOLE LODGE (approx: stansted village)"
    },
    {
      "id": "5adb212f2190",
      "application": "stansted",
      "date": "2025-11-17",
      "description": "22 OLD BELL CLOSE - COMMENTS",
      "lat": 51.8992882,
      "lng": 0.1928404,
      "geocoded": true,
      "geocode_error": null,
      "geocoded_location": "22 OLD BELL CLOSE, Stansted Mountfitchet, Essex, UK"
    },
    {
      "id": "0cbd0770d326",
      "application": "stansted",
      "date": "2025-11-17",
      "description": "1 HILLSIDE END - COMMENTS",
      "lat": 51.8873788,
      "lng": 0.1852741,
      "geocoded": true,
      "geocode_error": null,
      "geocoded_location": "1 HILLSIDE END, Birchanger, Essex, UK"
    },
    {
      "id": "6b90dcdc6e22",
      "application": "stansted",
      "date": "2025-11-16",
      "description": "HOLLY HOUSE - COMMENTS",
      "lat": 51.898,
      "lng": 0.197,
      "geocoded": true,
      "geocode_error": null,
      "geocoded_location": "HOLLY HOUSE (approx: stansted village)"
    },
    {
      "id": "9aedc9723b3b",
      "application": "stansted",
      "date": "2025-11-16",
      "description": "40 WOODLAND VIEW - COMMENTS",
      "lat": 51.9185305,
      "lng": 0.2223294,
      "geocoded": true,
      "geocode_error": null,
      "geocoded_location": "40 WOODLAND VIEW, Essex, UK"
    },
    {
      "id": "de94f6d8f98f",
      "application": "stansted",
      "date": "2025-11-16",
      "description": "9 OLD BELL CLOSE - COMMENTS",
      "lat": 51.8992882,
      "lng": 0.1928404,
      "geocoded": true,
      "geocode_error": null,
      "geocoded_location": "9 OLD BELL CLOSE, Stansted Mountfitchet, Essex, UK"
    },
    {
      "id": "40dd8ec52b43",
      "application": "stansted",
      "date": "2025-11-16",
      "description": "24 OLD BELL CLOSE - COMMENTS",
      "lat": 51.8992882,
      "lng": 0.1928404,
      "geocoded": true,
      "geocode_error": null,
      "geocoded_location": "24 OLD BELL CLOSE, Stansted Mountfitchet, Essex, UK"
    },
    {
      "id": "455630bf8c35",
      "application": "stansted",
      "date": "2025-11-16",
      "description": "86 BIRCHANGER LANE - COMMENTS",
      "lat": 51.8730968,
      "lng": 0.1959183,
      "geocoded": true,
      "geocode_error": null,
      "geocoded_location": "86 BIRCHANGER LANE, Birchanger, Essex, UK"
    },
    {
      "id": "7cf7d8b13f26",
      "application": "stansted",
      "date": "2025-11-16",
      "description": "11 HARRISONS - COMMENTS",
      "lat": 51.882497,
      "lng": 0.1892625,
      "geocoded": true,
      "geocode_error": null,
      "geocoded_location": "11 HARRISONS, Birchanger, Essex, UK"
    },
    {
      "id": "9da80ea3fe80",
      "application": "stansted",
      "date": "2025-11-16",
      "description": "41B HIGH VIEW - COMMENTS",
      "lat": 51.885802,
      "lng": 0.1855276,
      "geocoded": true,
      "geocode_error": null,
      "geocoded_location": "41B HIGH VIEW, Birchanger, Essex, UK"
    },
    {
      "id": "f161ad5b4625",
      "application": "stansted",
      "date": "2025-11-16",
      "description": "66 BIRCHANGER LANE - COMMENTS",
      "lat": 51.8730968,
      "lng": 0.1959183,
      "geocoded": true,
      "geocode_error": null,
      "geocoded_location": "66 BIRCHANGER LANE, Birchanger, Essex, UK"
    },
    {
      "id": "405072f3c6a9",
      "application": "stansted",
      "date": "2025-11-15",
      "description": "28 PALMER CLOSE - COMMENTS",
      "lat": 51.8951035,
      "lng": 0.2024074,
      "geocoded": true,
      "geocode_error": null,
      "geocoded_location": "28 PALMER CLOSE, Stansted Mountfitchet, Essex, UK"
    },
    {
      "id": "c88ac5050f2c",
      "application": "stansted",
      "date": "2025-11-15",
      "description": "91 BIRCHANGER LANE - COMMENTS",
      "lat": 51.8730968,
      "lng": 0.1959183,
      "geocoded": true,
      "geocode_error": null,
      "geocoded_location": "91 BIRCHANGER LANE, Birchanger, Essex, UK"
    },
    {
      "id": "8ca342299878",
      "application": "stansted",
      "date": "2025-11-15",
      "description": "2 CORN ROAD - COMMENTS",
      "lat": 51.9231918,
      "lng": 0.2564613,
      "geocoded": true,
      "geocode_error": null,
      "geocoded_location": "CORN ROAD, Essex, UK"
    },
    {
      "id": "a363eb4bedca",
      "application": "stansted",
      "date": "2025-11-15",
      "description": "26 HIGH VIEW - COMMENTS",
      "lat": 51.885802,
      "lng": 0.1855276,
      "geocoded": true,
      "geocode_error": null,
      "geocoded_location": "26 HIGH VIEW, Birchanger, Essex, UK"
    },
    {
      "id": "0dc6153f3096",
      "application": "stansted",
      "date": "2025-11-14",
      "description": "12 WOODFIELDS - COMMENTS",
      "lat": 51.9018639,
      "lng": 0.1965533,
      "geocoded": true,
      "geocode_error": null,
      "geocoded_location": "12 WOODFIELDS, Stansted Mountfitchet, Essex, UK"
    },
    {
      "id": "5b5c394725e9",
      "application": "stansted",
      "date": "2025-11-13",
      "description": "55 WOODFIELDS - COMMENTS",
      "lat": 51.9018639,
      "lng": 0.1965533,
      "geocoded": true,
      "geocode_error": null,
      "geocoded_location": "55 WOODFIELDS, Stansted Mountfitchet, Essex, UK"
    },
    {
      "id": "a9eb38ae9022",
      "application": "birchanger",
      "date": "2025-11-24",
      "description": "THE SPINNEY - COMMENT",
      "lat": 51.8825,
      "lng": 0.19,
      "geocoded": true,
      "geocode_error": null,
      "geocoded_location": "THE SPINNEY (approx: birchanger village)"
    },
    {
      "id": "6d615b42bcfb",
      "application": "birchanger",
      "date": "2025-11-21",
      "description": "36 SHEPHALL WAY - COMMENT",
      "lat": null,
      "lng": null,
      "geocoded": false,
      "geocode_error": "geocoding_failed"
    },
    {
      "id": "8594e45df6ae",
      "application": "stansted",
      "date": "2025-11-24",
      "description": "HIGHFIELDS - COMMENTS",
      "lat": 51.8915862,
      "lng": 0.2348981,
      "geocoded": true,
      "geocode_error": null,
      "geocoded_location": "HIGHFIELDS, Stansted Mountfitchet, Essex, UK"
    },
    {
      "id": "9caef62fabdf",
      "application": "stansted",
      "date": "2025-11-22",
      "description": "25 BENTFIELD END - COMMENTS",
      "lat": 51.9071937,
      "lng": 0.1905585,
      "geocoded": true,
      "geocode_error": null,
      "geocoded_location": "25 BENTFIELD END, Stansted Mountfitchet, Essex, UK"
    },
    {
      "id": "5ddcbd609c36",
      "application": "stansted",
      "date": "2025-11-21",
      "description": "13 HARRISONS - COMMENTS",
      "lat": 51.882497,
      "lng": 0.1892625,
      "geocoded": true,
      "geocode_error": null,
      "geocoded_location": "13 HARRISONS, Birchanger, Essex, UK"
    },
    {
      "id": "7e702d59aa13",
      "application": "stansted",
      "date": "2025-11-21",
      "description": "24 HARRISONS - COMMENTS",
      "lat": 51.882497,
      "lng": 0.1892625,
      "geocoded": true,
      "geocode_error": null,
      "geocoded_location": "24 HARRISONS, Birchanger, Essex, UK"
    },
    {
      "id": "1389d07fd84e",
      "application": "stansted",
      "date": "2025-11-21",
      "description": "8 CROASDAILE ROAD - COMMENTS",
      "lat": 51.9089418,
      "lng": 0.1965281,
      "geocoded": true,
      "geocode_error": null,
      "geocoded_location": "8 CROASDAILE ROAD, Stansted Mountfitchet, Essex, UK"
    },
    {
      "id": "efd156b7c643",
      "application": "stansted",
      "date": "2025-11-24",
      "description": "12 LOATES PASTURE - COMMENTS",
      "lat": 51.9084282,
      "lng": 0.1920322,
      "geocoded": true,
      "geocode_error": null,
      "geocoded_location": "12 LOATES PASTURE, Stansted Mountfitchet, Essex, UK"
    },
    {
      "id": "757de7c6d4a6",
      "application": "stansted",
      "date": "2025-11-23",
      "description": "76 BIRCHANGER LANE - COMMENTS",
      "lat": 51.8730968,
      "lng": 0.1959183,
      "geocoded": true,
      "geocode_error": null,
      "geocoded_location": "76 BIRCHANGER LANE, Birchanger, Essex, UK"
    },
    {
      "id": "985bb6488b5a",
      "application": "stansted",
      "date": "2025-11-23",
      "description": "265 BIRCHANGER LANE - COMMENTS",
      "lat": 51.8730968,
      "lng": 0.1959183,
      "geocoded": true,
      "geocode_error": null,
      "geocoded_location": "265 BIRCHANGER LANE, Birchanger, Essex, UK"
    },
    {
      "id": "ef38eb629a40",
      "application": "stansted",
      "date": "2025-11-23",
      "description": "17 BIRCHWOOD - COMMENTS",
      "lat": 51.8842103,
      "lng": 0.1927045,
      "geocoded": true,
      "geocode_error": null,
      "geocoded_location": "17 BIRCHWOOD, Birchanger, Essex, UK"
    },
    {
      "id": "cd4bebf1e884",
      "application": "stansted",
      "date": "2025-11-23",
      "description": "48 MILL ROAD - COMMENTS",
      "lat": 51.7927986,
      "lng": 0.3636302,
      "geocoded": true,
      "geocode_error": null,
      "geocoded_location": "48 MILL ROAD, Essex, UK"
    },
    {
      "id": "4eb80c14467b",
      "application": "stansted",
      "date": "2025-11-23",
      "description": "28 BENTFIELD END - COMMENTS",
      "lat": 51.9071937,
      "lng": 0.1905585,
      "geocoded": true,
      "geocode_error": null,
      "geocoded_location": "28 BENTFIELD END, Stansted Mountfitchet, Essex, UK"
    },
    {
      "id": "fd24cd008164",
      "application": "stansted",
      "date": "2025-11-23",
      "description": "14A BRADLEY COMMON - COMMENTS",
      "lat": 51.8864386,
      "lng": 0.1852188,
      "geocoded": true,
      "geocode_error": null,
      "geocoded_location": "14A BRADLEY COMMON, Birchanger, Essex, UK"
    },
    {
      "id": "3eb8209b91e4",
      "application": "stansted",
      "date": "2025-11-23",
      "description": "35 HARRISONS - COMMENTS",
      "lat": 51.882497,
      "lng": 0.1892625,
      "geocoded": true,
      "geocode_error": null,
      "geocoded_location": "35 HARRISONS, Birchanger, Essex, UK"
    },
    {
      "id": "05e071b4beed",
      "application": "stansted",
      "date": "2025-11-23",
      "description": "1 WRIGHTS PIECE - COMMENTS",
      "lat": 51.9339177,
      "lng": 0.2543374,
      "geocoded": true,
      "geocode_error": null,
      "geocoded_location": "1 WRIGHTS PIECE, Essex, UK"
    },
    {
      "id": "e02c367ad33f",
      "application": "stansted",
      "date": "2025-11-23",
      "description": "6 HILLSIDE COTTAGES - COMMENTS",
      "lat": 51.9071019,
      "lng": 1.1959158,
      "geocoded": true,
      "geocode_error": null,
      "geocoded_location": "HILLSIDE COTTAGES, Essex, UK"
    },
    {
      "id": "946bc56f6d18",
      "application": "stansted",
      "date": "2025-11-23",
      "description": "11 PEACHEY WALK - COMMENTS",
      "lat": 51.8942609,
      "lng": 0.2005477,
      "geocoded": true,
      "geocode_error": null,
      "geocoded_location": "11 PEACHEY WALK, Stansted Mountfitchet, Essex, UK"
    },
    {
      "id": "a50bfcd373d9",
      "application": "stansted",
      "date": "2025-11-22",
      "description": "10 BRADLEY COMMON - COMMENTS",
      "lat": 51.8864386,
      "lng": 0.1852188,
      "geocoded": true,
      "geocode_error": null,
      "geocoded_location": "10 BRADLEY COMMON, Birchanger, Essex, UK"
    },
    {
      "id": "33e3dc8771e4",
      "application": "stansted",
      "date": "2025-11-22",
      "description": "6 CHURCH HILL CORNER - COMMENTS",
      "lat": null,
      "lng": null,
      "geocoded": false,
      "geocode_error": "geocoding_failed"
    },
    {
      "id": "846309b4c6e6",
      "application": "stansted",
      "date": "2025-11-22",
      "description": "30 HARRISONS - COMMENTS",
      "lat": 51.882497,
      "lng": 0.1892625,
      "geocoded": true,
      "geocode_error": null,
      "geocoded_location": "30 HARRISONS, Birchanger, Essex, UK"
    },
    {
      "id": "718c410038aa",
      "application": "stansted",
      "date": "2025-11-22",
      "description": "17 NEWELL ROAD - COMMENTS",
      "lat": 51.8937601,
      "lng": 0.1944066,
      "geocoded": true,
      "geocode_error": null,
      "geocoded_location": "17 NEWELL ROAD, Stansted Mountfitchet, Essex, UK"
    },
    {
      "id": "eee53f433d2e",
      "application": "stansted",
      "date": "2025-11-22",
      "description": "39 WEST ROAD - COMMENTS",
      "lat": 51.8986462,
      "lng": 0.1950323,
      "geocoded": true,
      "geocode_error": null,
      "geocoded_location": "39 WEST ROAD, Stansted Mountfitchet, Essex, UK"
    },
    {
      "id": "c1f3b6133fa1",
      "application": "stansted",
      "date": "2025-11-22",
      "description": "7 HIGH VIEW - COMMENTS",
      "lat": 51.885802,
      "lng": 0.1855276,
      "geocoded": true,
      "geocode_error": null,
      "geocoded_location": "7 HIGH VIEW, Birchanger, Essex, UK"
    },
    {
      "id": "a091f6a83a7f",
      "application": "stansted",
      "date": "2025-11-21",
      "description": "THE SPINNEY - COMMENTS",
      "lat": 51.898,
      "lng": 0.197,
      "geocoded": true,
      "geocode_error": null,
      "geocoded_location": "THE SPINNEY (approx: stansted village)"
    },
    {
      "id": "0d55ab6067fb",
      "application": "stansted",
      "date": "2025-11-21",
      "description": "36 BAYFORD WAY - COMMENTS",
      "lat": 51.8946072,
      "lng": 0.1925026,
      "geocoded": true,
      "geocode_error": null,
      "geocoded_location": "36 BAYFORD WAY, Stansted Mountfitchet, Essex, UK"
    },
    {
      "id": "72caf680c43e",
      "application": "stansted",
      "date": "2025-11-21",
      "description": "46 BIRCHANGER LANE - COMMENTS",
      "lat": 51.8730968,
      "lng": 0.1959183,
      "geocoded": true,
      "geocode_error": null,
      "geocoded_location": "46 BIRCHANGER LANE, Birchanger, Essex, UK"
    },
    {
      "id": "9bf2621484d1",
      "application": "birchanger",
      "date": "2025-11-22",
      "description": "25 BENTFIELD END - COMMENTS",
      "lat": 51.9071937,
      "lng": 0.1905585,
      "geocoded": true,
      "geocode_error": null,
      "geocoded_location": "25 BENTFIELD END, Stansted Mountfitchet, Essex, UK"
    },
    {
      "id": "37e002544ef4",
      "application": "stansted",
      "date": "2025-11-22",
      "description": "3 COLTSFIELD - COMMENTS",
      "lat": 51.9079089,
      "lng": 0.199985,
      "geocoded": true,
      "geocode_error": null,
      "geocoded_location": "3 COLTSFIELD, Stansted Mountfitchet, Essex, UK"
    },
    {
      "id": "3307a4e38b7a",
      "application": "stansted",
      "date": "2025-11-22",
      "description": "2 WASHINGTON MEADS - COMMENTS",
      "lat": null,
      "lng": null,
      "geocoded": false,
      "geocode_error": "geocoding_failed"
    },
    {
      "id": "ee5f79512388",
      "application": "stansted",
      "date": "2025-11-22",
      "description": "274 BIRCHANGER LANE - COMMENTS",
      "lat": 51.8730968,
      "lng": 0.1959183,
      "geocoded": true,
      "geocode_error": null,
      "geocoded_location": "274 BIRCHANGER LANE, Birchanger, Essex, UK"
    },
    {
      "id": "baa605b7f61a",
      "application": "stansted",
      "date": "2025-11-22",
      "description": "1 BARKER ROW - COMMENTS",
      "lat": null,
      "lng": null,
      "geocoded": false,
      "geocode_error": "geocoding_failed"
    },
    {
      "id": "0e5413dd490d",
      "application": "stansted",
      "date": "2025-11-22",
      "description": "8 CHURTON - COMMENTS",
      "lat": 51.8796239,
      "lng": 0.1957478,
      "geocoded": true,
      "geocode_error": null,
      "geocoded_location": "8 CHURTON, Birchanger, Essex, UK"
    },
    {
      "id": "611753b04b38",
      "application": "stansted",
      "date": "2025-11-21",
      "description": "84 WALSON WAY - COMMENTS",
      "lat": 51.8947868,
      "lng": 0.2002768,
      "geocoded": true,
      "geocode_error": null,
      "geocoded_location": "84 WALSON WAY, Stansted Mountfitchet, Essex, UK"
    },
    {
      "id": "e0ff0b7ce1eb",
      "application": "stansted",
      "date": "2025-11-21",
      "description": "34 WALSON WAY - COMMENTS",
      "lat": 51.8947868,
      "lng": 0.2002768,
      "geocoded": true,
      "geocode_error": null,
      "geocoded_location": "34 WALSON WAY, Stansted Mountfitchet, Essex, UK"
    },
    {
      "id": "343cf3e188bc",
      "application": "stansted",
      "date": "2025-11-21",
      "description": "4 CLARKE CLOSE - COMMENTS",
      "lat": 51.8953869,
      "lng": 0.1994677,
      "geocoded": true,
      "geocode_error": null,
      "geocoded_location": "4 CLARKE CLOSE, Stansted Mountfitchet, Essex, UK"
    },
    {
      "id": "0c39b5148e39",
      "application": "stansted",
      "date": "2025-11-21",
      "description": "27 HARRISONS - COMMENTS",
      "lat": 51.882497,
      "lng": 0.1892625,
      "geocoded": true,
      "geocode_error": null,
      "geocoded_location": "27 HARRISONS, Birchanger, Essex, UK"
    },
    {
      "id": "5ccab2a456f2",
      "application": "stansted",
      "date": "2025-11-21",
      "description": "31 FELSTEAD CRESCENT - COMMENTS",
      "lat": 51.8942693,
      "lng": 0.1945805,
      "geocoded": true,
      "geocode_error": null,
      "geocoded_location": "31 FELSTEAD CRESCENT, Stansted Mountfitchet, Essex, UK"
    },
    {
      "id": "b29edecd78bc",
      "application": "stansted",
      "date": "2025-11-21",
      "description": "22 CROSADAILE ROAD - COMMENTS",
      "lat": null,
      "lng": null,
      "geocoded": false,
      "geocode_error": "geocoding_failed"
    },
    {
      "id": "9aa50508db62",
      "application": "stansted",
      "date": "2025-11-21",
      "description": "15 STONEY PLACE - COMMENTS",
      "lat": 51.8969982,
      "lng": 0.1977273,
      "geocoded": true,
      "geocode_error": null,
      "geocoded_location": "15 STONEY PLACE, Stansted Mountfitchet, Essex, UK"
    },
    {
      "id": "78ff339fd1a5",
      "application": "stansted",
      "date": "2025-11-21",
      "description": "67-68 LONG ACRE - COMMENTS",
      "lat": 51.7835468,
      "lng": 0.1288492,
      "geocoded": true,
      "geocode_error": null,
      "geocoded_location": "67-68 LONG ACRE, Essex, UK"
    },
    {
      "id": "12de58d7e016",
      "application": "stansted",
      "date": "2025-11-21",
      "description": "14 HIGH VIEW - COMMENTS",
      "lat": 51.885802,
      "lng": 0.1855276,
      "geocoded": true,
      "geocode_error": null,
      "geocoded_location": "14 HIGH VIEW, Birchanger, Essex, UK"
    },
    {
      "id": "04d7c7c71443",
      "application": "birchanger",
      "date": "2025-11-24",
      "description": "36 BAYFORD WAY - COMMENT",
      "lat": 51.8946072,
      "lng": 0.1925026,
      "geocoded": true,
      "geocode_error": null,
      "geocoded_location": "36 BAYFORD WAY, Birchanger, Essex, UK"
    },
    {
      "id": "b7589988d3c2",
      "application": "birchanger",
      "date": "2025-11-24",
      "description": "46 BIRCHANGER LANE - COMMENTS",
      "lat": 51.8730968,
      "lng": 0.1959183,
      "geocoded": true,
      "geocode_error": null,
      "geocoded_location": "46 BIRCHANGER LANE, Birchanger, Essex, UK"
    },
    {
      "id": "85bb4fcb2e5d",
      "application": "birchanger",
      "date": "2025-11-24",
      "description": "84 WALSON WAY - COMMENTS",
      "lat": 51.8947868,
      "lng": 0.2002768,
      "geocoded": true,
      "geocode_error": null,
      "geocoded_location": "84 WALSON WAY, Birchanger, Essex, UK"
    },
    {
      "id": "e461a85a1968",
      "application": "birchanger",
      "date": "2025-11-24",
      "description": "34 WALSON WAY - COMMENTS",
      "lat": 51.8947868,
      "lng": 0.2002768,
      "geocoded": true,
      "geocode_error": null,
      "geocoded_location": "34 WALSON WAY, Birchanger, Essex, UK"
    },
    {
      "id": "500466f31233",
      "application": "birchanger",
      "date": "2025-11-24",
      "description": "4 CLARKE CLOSE - COMMENTS",
      "lat": 51.8953869,
      "lng": 0.1994677,
      "geocoded": true,
      "geocode_error": null,
      "geocoded_location": "4 CLARKE CLOSE, Birchanger, Essex, UK"
    },
    {
      "id": "f82f0b4b1632",
      "application": "birchanger",
      "date": "2025-11-24",
      "description": "27 HARRISONS - COMMENTS",
      "lat": 51.882497,
      "lng": 0.1892625,
      "geocoded": true,
      "geocode_error": null,
      "geocoded_location": "27 HARRISONS, Birchanger, Essex, UK"
    },
    {
      "id": "a4ca687637ec",
      "application": "stansted",
      "date": "2025-11-23",
      "description": "2 BENTFIELD END - COMMENTS",
      "lat": 51.9071937,
      "lng": 0.1905585,
      "geocoded": true,
      "geocode_error": null,
      "geocoded_location": "2 BENTFIELD END, Stansted Mountfitchet, Essex, UK"
    },
    {
      "id": "46137787b4ed",
      "application": "stansted",
      "date": "2025-11-23",
      "description": "53 LOWER STREET - COMMENTS",
      "lat": 51.9035164,
      "lng": 0.2003117,
      "geocoded": true,
      "geocode_error": null,
      "geocoded_location": "53 LOWER STREET, Stansted Mountfitchet, Essex, UK"
    },
    {
      "id": "31a3b9836604",
      "application": "stansted",
      "date": "2025-11-22",
      "description": "6 HILLSIDE COTTAGES - COMMENTS",
      "lat": 51.9071019,
      "lng": 1.1959158,
      "geocoded": true,
      "geocode_error": null,
      "geocoded_location": "HILLSIDE COTTAGES, Essex, UK"
    },
    {
      "id": "b3da18c9e4ca",
      "application": "stansted",
      "date": "2025-11-22",
      "description": "4 BLAKE MEWS - COMMENTS",
      "lat": 51.8924906,
      "lng": 0.1922883,
      "geocoded": true,
      "geocode_error": null,
      "geocoded_location": "4 BLAKE MEWS, Stansted Mountfitchet, Essex, UK"
    },
    {
      "id": "3b14d1a7a708",
      "application": "stansted",
      "date": "2025-11-22",
      "description": "34 BAYFORD WAY - COMMENTS",
      "lat": 51.8946072,
      "lng": 0.1925026,
      "geocoded": true,
      "geocode_error": null,
      "geocoded_location": "34 BAYFORD WAY, Stansted Mountfitchet, Essex, UK"
    },
    {
      "id": "f457547562b1",
      "application": "stansted",
      "date": "2025-11-22",
      "description": "65 BIRCHWOOD - COMMENTS",
      "lat": 51.8842103,
      "lng": 0.1927045,
      "geocoded": true,
      "geocode_error": null,
      "geocoded_location": "65 BIRCHWOOD, Birchanger, Essex, UK"
    },
    {
      "id": "67b025565b83",
      "application": "stansted",
      "date": "2025-11-22",
      "description": "5 RECREATION GROUND - COMMENTS",
      "lat": 51.9014826,
      "lng": 0.1948798,
      "geocoded": true,
      "geocode_error": null,
      "geocoded_location": "5 RECREATION GROUND, Stansted Mountfitchet, Essex, UK"
    },
    {
      "id": "e6d462ddb702",
      "application": "stansted",
      "date": "2025-11-22",
      "description": "159 CANNONS CLOSE - COMMENTS",
      "lat": 51.8775452,
      "lng": 0.8844257,
      "geocoded": true,
      "geocode_error": null,
      "geocoded_location": "159 CANNONS CLOSE, Essex, UK"
    },
    {
      "id": "4ac98d86528e",
      "application": "birchanger",
      "date": "2025-11-24",
      "description": "31 FELSTEAD CRESCENT - COMMENTS",
      "lat": 51.8942693,
      "lng": 0.1945805,
      "geocoded": true,
      "geocode_error": null,
      "geocoded_location": "31 FELSTEAD CRESCENT, Birchanger, Essex, UK"
    },
    {
      "id": "85ac993bc9be",
      "application": "birchanger",
      "date": "2025-11-25",
      "description": "22 CROASDAILE ROAD - COMMENTS",
      "lat": 51.9089418,
      "lng": 0.1965281,
      "geocoded": true,
      "geocode_error": null,
      "geocoded_location": "22 CROASDAILE ROAD, Stansted Mountfitchet, Essex, UK"
    },
    {
      "id": "835120ba314e",
      "application": "birchanger",
      "date": "2025-11-25",
      "description": "15 STONEY PLACE - COMMENTS",
      "lat": 51.8969982,
      "lng": 0.1977273,
      "geocoded": true,
      "geocode_error": null,
      "geocoded_location": "15 STONEY PLACE, Stansted Mountfitchet, Essex, UK"
    },
    {
      "id": "be8a9dd05a1d",
      "application": "birchanger",
      "date": "2025-11-22",
      "description": "10 BRADLEY COMMON - COMMENT",
      "lat": 51.8864386,
      "lng": 0.1852188,
      "geocoded": true,
      "geocode_error": null,
      "geocoded_location": "10 BRADLEY COMMON, Birchanger, Essex, UK"
    },
    {
      "id": "d47d3d3d978e",
      "application": "birchanger",
      "date": "2025-11-22",
      "description": "10 BRADLEY COMMON - COMMENTS",
      "lat": 51.8864386,
      "lng": 0.1852188,
      "geocoded": true,
      "geocode_error": null,
      "geocoded_location": "10 BRADLEY COMMON, Birchanger, Essex, UK"
    },
    {
      "id": "a98d84b418dc",
      "application": "birchanger",
      "date": "2025-11-22",
      "description": "30 HARRISONS - COMMENTS",
      "lat": 51.882497,
      "lng": 0.1892625,
      "geocoded": true,
      "geocode_error": null,
      "geocoded_location": "30 HARRISONS, Birchanger, Essex, UK"
    },
    {
      "id": "b674c640dba3",
      "application": "stansted",
      "date": "2025-11-23",
      "description": "17 HIGH VIEW - COMMENTS",
      "lat": 51.885802,
      "lng": 0.1855276,
      "geocoded": true,
      "geocode_error": null,
      "geocoded_location": "17 HIGH VIEW, Birchanger, Essex, UK"
    },
    {
      "id": "c7df537ffc06",
      "application": "stansted",
      "date": "2025-11-23",
      "description": "13 ST JOHNS ROAD - COMMENTS",
      "lat": 51.7002828,
      "lng": 0.1082835,
      "geocoded": true,
      "geocode_error": null,
      "geocoded_location": "13 ST JOHNS ROAD, Essex, UK"
    },
    {
      "id": "36811755d5ef",
      "application": "stansted",
      "date": "2025-11-23",
      "description": "16 HERMITAGE HOUSE - COMMENTS",
      "lat": null,
      "lng": null,
      "geocoded": false,
      "geocode_error": "geocoding_failed"
    },
    {
      "id": "6da1a6443117",
      "application": "stansted",
      "date": "2025-11-23",
      "description": "32 BENTFIELD ROAD - COMMENTS",
      "lat": 51.9047401,
      "lng": 0.1918673,
      "geocoded": true,
      "geocode_error": null,
      "geocoded_location": "32 BENTFIELD ROAD, Stansted Mountfitchet, Essex, UK"
    },
    {
      "id": "82121bc434d3",
      "application": "stansted",
      "date": "2025-11-23",
      "description": "16 GILBEY CRESCENT - COMMENTS",
      "lat": 51.9087338,
      "lng": 0.1948581,
      "geocoded": true,
      "geocode_error": null,
      "geocoded_location": "16 GILBEY CRESCENT, Stansted Mountfitchet, Essex, UK"
    },
    {
      "id": "bcf76f142af4",
      "application": "stansted",
      "date": "2025-11-23",
      "description": "2 GREENFIELDS - COMMENTS",
      "lat": 51.9035085,
      "lng": 0.1954159,
      "geocoded": true,
      "geocode_error": null,
      "geocoded_location": "2 GREENFIELDS, Stansted Mountfitchet, Essex, UK"
    },
    {
      "id": "94a52401e7f4",
      "application": "stansted",
      "date": "2025-11-23",
      "description": "2 GREENFIELDS - COMMENTS - ATTACHMENTS",
      "lat": 51.9035085,
      "lng": 0.1954159,
      "geocoded": true,
      "geocode_error": null,
      "geocoded_location": "2 GREENFIELDS, Stansted Mountfitchet, Essex, UK"
    },
    {
      "id": "9828542fdc83",
      "application": "birchanger",
      "date": "2025-11-25",
      "description": "67-68 LONG ACRE - COMMENTS",
      "lat": 51.7835468,
      "lng": 0.1288492,
      "geocoded": true,
      "geocode_error": null,
      "geocoded_location": "67-68 LONG ACRE, Essex, UK"
    },
    {
      "id": "67c752ab766a",
      "application": "birchanger",
      "date": "2025-11-25",
      "description": "14 HIGH VIEW - COMMENTS",
      "lat": 51.885802,
      "lng": 0.1855276,
      "geocoded": true,
      "geocode_error": null,
      "geocoded_location": "14 HIGH VIEW, Birchanger, Essex, UK"
    },
    {
      "id": "815d84a79738",
      "application": "birchanger",
      "date": "2025-11-25",
      "description": "3 COLTSFIELD - COMMENTS",
      "lat": 51.9079089,
      "lng": 0.199985,
      "geocoded": true,
      "geocode_error": null,
      "geocoded_location": "3 COLTSFIELD, Stansted Mountfitchet, Essex, UK"
    },
    {
      "id": "335e7483f60c",
      "application": "birchanger",
      "date": "2025-11-25",
      "description": "39 WEST ROAD - COMMENTS",
      "lat": 51.8986462,
      "lng": 0.1950323,
      "geocoded": true,
      "geocode_error": null,
      "geocoded_location": "39 WEST ROAD, Stansted Mountfitchet, Essex, UK"
    },
    {
      "id": "3c4d810e02d6",
      "application": "birchanger",
      "date": "2025-11-25",
      "description": "2 WASHINGTON MEADS - COMMENTS",
      "lat": null,
      "lng": null,
      "geocoded": false,
      "geocode_error": "geocoding_failed"
    },
    {
      "id": "021f25596cd4",
      "application": "birchanger",
      "date": "2025-11-22",
      "description": "17 NEWELLL ROAD - COMMENTS",
      "lat": null,
      "lng": null,
      "geocoded": false,
      "geocode_error": "geocoding_failed"
    },
    {
      "id": "e11bb09616df",
      "application": "birchanger",
      "date": "2025-11-22",
      "description": "39 WEST ROAD - COMMENTS",
      "lat": 51.8986462,
      "lng": 0.1950323,
      "geocoded": true,
      "geocode_error": null,
      "geocoded_location": "39 WEST ROAD, Stansted Mountfitchet, Essex, UK"
    },
    {
      "id": "356aa8080047",
      "application": "stansted",
      "date": "2025-11-23",
      "description": "HAWTHORN HOUSE - COMMENTS",
      "lat": 51.898,
      "lng": 0.197,
      "geocoded": true,
      "geocode_error": null,
      "geocoded_location": "HAWTHORN HOUSE (approx: stansted village)"
    },
    {
      "id": "309f5589339e",
      "application": "stansted",
      "date": "2025-11-23",
      "description": "1 WASHINGTON MEADS - COMMENTS",
      "lat": null,
      "lng": null,
      "geocoded": false,
      "geocode_error": "geocoding_failed"
    },
    {
      "id": "da4abe7c0f27",
      "application": "stansted",
      "date": "2025-11-23",
      "description": "6 WATER LANE - COMMENTS",
      "lat": 51.9009597,
      "lng": 0.1977548,
      "geocoded": true,
      "geocode_error": null,
      "geocoded_location": "6 WATER LANE, Stansted Mountfitchet, Essex, UK"
    },
    {
      "id": "37f0ed9e7168",
      "application": "stansted",
      "date": "2025-11-23",
      "description": "32 LIVINGS WAY - COMMENTS",
      "lat": 51.8937267,
      "lng": 0.1970356,
      "geocoded": true,
      "geocode_error": null,
      "geocoded_location": "32 LIVINGS WAY, Stansted Mountfitchet, Essex, UK"
    },
    {
      "id": "81c356376dd1",
      "application": "stansted",
      "date": "2025-11-23",
      "description": "18 BRADLEY COMMON - COMMENTS",
      "lat": 51.8864386,
      "lng": 0.1852188,
      "geocoded": true,
      "geocode_error": null,
      "geocoded_location": "18 BRADLEY COMMON, Birchanger, Essex, UK"
    },
    {
      "id": "af9a82956789",
      "application": "stansted",
      "date": "2025-11-23",
      "description": "2 FIVE ACRES - COMMENTS",
      "lat": 51.9094369,
      "lng": 0.1994391,
      "geocoded": true,
      "geocode_error": null,
      "geocoded_location": "2 FIVE ACRES, Stansted Mountfitchet, Essex, UK"
    },
    {
      "id": "716b07affb3c",
      "application": "stansted",
      "date": "2025-11-23",
      "description": "40 BAYFORD WAY - COMMENTS",
      "lat": 51.8934427,
      "lng": 0.1920397,
      "geocoded": true,
      "geocode_error": null,
      "geocoded_location": "40 BAYFORD WAY, Stansted Mountfitchet, Essex, UK"
    },
    {
      "id": "48196906f1f3",
      "application": "stansted",
      "date": "2025-11-23",
      "description": "15 KNIGHTS CLOSE - COMMENTS",
      "lat": 51.9450892,
      "lng": 1.0569373,
      "geocoded": true,
      "geocode_error": null,
      "geocoded_location": "15 KNIGHTS CLOSE, Essex, UK"
    },
    {
      "id": "1eeaab64e7ef",
      "application": "birchanger",
      "date": "2025-11-25",
      "description": "18 GOLDINGS - COMMENTS",
      "lat": 51.7554218,
      "lng": 0.1042798,
      "geocoded": true,
      "geocode_error": null,
      "geocoded_location": "18 GOLDINGS, Essex, UK"
    },
    {
      "id": "7e438fa039b5",
      "application": "birchanger",
      "date": "2025-11-25",
      "description": "3 HILLSIDE END - COMMENTS",
      "lat": 51.8873788,
      "lng": 0.1852741,
      "geocoded": true,
      "geocode_error": null,
      "geocoded_location": "3 HILLSIDE END, Birchanger, Essex, UK"
    },
    {
      "id": "1aaa5f9c4ffe",
      "application": "birchanger",
      "date": "2025-11-25",
      "description": "274 BIRCHCHANGER LANE - COMMENTS",
      "lat": null,
      "lng": null,
      "geocoded": false,
      "geocode_error": "geocoding_failed"
    },
    {
      "id": "06e610874806",
      "application": "birchanger",
      "date": "2025-11-25",
      "description": "1 BARKER ROW - COMMENTS",
      "lat": null,
      "lng": null,
      "geocoded": false,
      "geocode_error": "geocoding_failed"
    },
    {
      "id": "57194b04beda",
      "application": "birchanger",
      "date": "2025-11-25",
      "description": "8 CHURTON - COMMENTS",
      "lat": 51.8796239,
      "lng": 0.1957478,
      "geocoded": true,
      "geocode_error": null,
      "geocoded_location": "8 CHURTON, Birchanger, Essex, UK"
    },
    {
      "id": "b981de841da0",
      "application": "birchanger",
      "date": "2025-11-25",
      "description": "6 HILLSIDE COTTAGES - COMMENTS",
      "lat": 51.9071019,
      "lng": 1.1959158,
      "geocoded": true,
      "geocode_error": null,
      "geocoded_location": "HILLSIDE COTTAGES, Essex, UK"
    },
    {
      "id": "9c16b452dd88",
      "application": "birchanger",
      "date": "2025-11-25",
      "description": "4 BLAKE MEWS - COMMENTS",
      "lat": 51.8924906,
      "lng": 0.1922883,
      "geocoded": true,
      "geocode_error": null,
      "geocoded_location": "4 BLAKE MEWS, Birchanger, Essex, UK"
    },
    {
      "id": "8535dcb5d888",
      "application": "birchanger",
      "date": "2025-11-24",
      "description": "5 HARRISONS - COMMENTS",
      "lat": 51.8832024,
      "lng": 0.189964,
      "geocoded": true,
      "geocode_error": null,
      "geocoded_location": "5 HARRISONS, Birchanger, Essex, UK"
    },
    {
      "id": "a1c99d476d48",
      "application": "birchanger",
      "date": "2025-11-24",
      "description": "12 LOATES PASTURE - COMMENTS",
      "lat": 51.9084282,
      "lng": 0.1920322,
      "geocoded": true,
      "geocode_error": null,
      "geocoded_location": "12 LOATES PASTURE, Stansted Mountfitchet, Essex, UK"
    },
    {
      "id": "c3042858b25e",
      "application": "birchanger",
      "date": "2025-11-24",
      "description": "6 LIMES CRESCENT - COMMENTS",
      "lat": null,
      "lng": null,
      "geocoded": false,
      "geocode_error": "geocoding_failed"
    },
    {
      "id": "27d1f582fdc5",
      "application": "birchanger",
      "date": "2025-11-24",
      "description": "55 WOODFIELDS - COMMENTS",
      "lat": 51.9018639,
      "lng": 0.1965533,
      "geocoded": true,
      "geocode_error": null,
      "geocoded_location": "55 WOODFIELDS, Stansted Mountfitchet, Essex, UK"
    },
    {
      "id": "f1a0c627ba0d",
      "application": "birchanger",
      "date": "2025-11-24",
      "description": "35 PEACHEY WALK - COMMENTS",
      "lat": 51.8939723,
      "lng": 0.20349,
      "geocoded": true,
      "geocode_error": null,
      "geocoded_location": "35 PEACHEY WALK, Birchanger, Essex, UK"
    },
    {
      "id": "4dfe74735e72",
      "application": "stansted",
      "date": "2025-11-25",
      "description": "18 GOLDINGS - COMMENTS",
      "lat": 51.7554218,
      "lng": 0.1042798,
      "geocoded": true,
      "geocode_error": null,
      "geocoded_location": "18 GOLDINGS, Essex, UK"
    },
    {
      "id": "daa77190c2c9",
      "application": "stansted",
      "date": "2025-11-24",
      "description": "6 LIMES CRESCENT - COMMENTS",
      "lat": null,
      "lng": null,
      "geocoded": false,
      "geocode_error": "geocoding_failed"
    },
    {
      "id": "e737f9552cbd",
      "application": "stansted",
      "date": "2025-11-24",
      "description": "35 PEACHEY WALK - COMMENTS",
      "lat": 51.8939723,
      "lng": 0.20349,
      "geocoded": true,
      "geocode_error": null,
      "geocoded_location": "35 PEACHEY WALK, Stansted Mountfitchet, Essex, UK"
    },
    {
      "id": "2ed7bcd985a2",
      "application": "stansted",
      "date": "2025-11-24",
      "description": "16 LIVINGS WAY - COMMENTS",
      "lat": 51.8937267,
      "lng": 0.1970356,
      "geocoded": true,
      "geocode_error": null,
      "geocoded_location": "16 LIVINGS WAY, Stansted Mountfitchet, Essex, UK"
    },
    {
      "id": "35e9d62c97b1",
      "application": "stansted",
      "date": "2025-11-23",
      "description": "MEADOWCROFT - COMMENTS",
      "lat": 51.9067793,
      "lng": 0.2008994,
      "geocoded": true,
      "geocode_error": null,
      "geocoded_location": "MEADOWCROFT, Stansted Mountfitchet, Essex, UK"
    },
    {
      "id": "e05844799053",
      "application": "stansted",
      "date": "2025-11-23",
      "description": "39 WALSON WAY - COMMENTS",
      "lat": 51.8947868,
      "lng": 0.2002768,
      "geocoded": true,
      "geocode_error": null,
      "geocoded_location": "39 WALSON WAY, Stansted Mountfitchet, Essex, UK"
    },
    {
      "id": "e9be18fc2cf5",
      "application": "stansted",
      "date": "2025-11-23",
      "description": "2 HARRISONS - COMMENTS",
      "lat": 51.8832024,
      "lng": 0.189964,
      "geocoded": true,
      "geocode_error": null,
      "geocoded_location": "2 HARRISONS, Birchanger, Essex, UK"
    },
    {
      "id": "956f2b6f001d",
      "application": "stansted",
      "date": "2025-11-23",
      "description": "4 DOCKERELL ROAD - COMMENTS",
      "lat": 51.8965026,
      "lng": 0.200081,
      "geocoded": true,
      "geocode_error": null,
      "geocoded_location": "4 DOCKERELL ROAD, Stansted Mountfitchet, Essex, UK"
    },
    {
      "id": "d33f9ac1ae53",
      "application": "stansted",
      "date": "2025-11-23",
      "description": "32 BIRCHANGER LANE - COMMENTS",
      "lat": 51.8732119,
      "lng": 0.1952944,
      "geocoded": true,
      "geocode_error": null,
      "geocoded_location": "32 BIRCHANGER LANE, Birchanger, Essex, UK"
    },
    {
      "id": "3e5cc884d3af",
      "application": "stansted",
      "date": "2025-11-23",
      "description": "4 THE GREEN - COMMENTS",
      "lat": 51.7302881,
      "lng": 0.4293771,
      "geocoded": true,
      "geocode_error": null,
      "geocoded_location": "4 THE GREEN, Essex, UK"
    },
    {
      "id": "1f3f7a85e2e6",
      "application": "stansted",
      "date": "2025-11-23",
      "description": "16 BRADLEY COMMON - COMMENTS",
      "lat": 51.8864386,
      "lng": 0.1852188,
      "geocoded": true,
      "geocode_error": null,
      "geocoded_location": "16 BRADLEY COMMON, Birchanger, Essex, UK"
    },
    {
      "id": "b0c4c542dd08",
      "application": "stansted",
      "date": "2025-11-23",
      "description": "12 CHAPEL HILL - COMMENTS",
      "lat": 51.9037639,
      "lng": 0.193283,
      "geocoded": true,
      "geocode_error": null,
      "geocoded_location": "12 CHAPEL HILL, Stansted Mountfitchet, Essex, UK"
    },
    {
      "id": "cea0523d8f2e",
      "application": "stansted",
      "date": "2025-11-23",
      "description": "MALLOWS GREEN FARM - COMMENTS",
      "lat": 51.9183037,
      "lng": 0.1383271,
      "geocoded": true,
      "geocode_error": null,
      "geocoded_location": "MALLOWS GREEN FARM, Essex, UK"
    },
    {
      "id": "c30055136431",
      "application": "stansted",
      "date": "2025-11-23",
      "description": "3 BRADLEY COMMON - COMMENTS",
      "lat": 51.8864386,
      "lng": 0.1852188,
      "geocoded": true,
      "geocode_error": null,
      "geocoded_location": "3 BRADLEY COMMON, Birchanger, Essex, UK"
    },
    {
      "id": "72563685bd97",
      "application": "stansted",
      "date": "2025-11-23",
      "description": "DRIVERS END - COMMENTS",
      "lat": 51.9103986,
      "lng": 0.1335958,
      "geocoded": true,
      "geocode_error": null,
      "geocoded_location": "DRIVERS END, Essex, UK"
    },
    {
      "id": "bb57cdb1ccba",
      "application": "stansted",
      "date": "2025-11-23",
      "description": "12 MEADOWCROFT - COMMENTS",
      "lat": 51.9067793,
      "lng": 0.2008994,
      "geocoded": true,
      "geocode_error": null,
      "geocoded_location": "12 MEADOWCROFT, Stansted Mountfitchet, Essex, UK"
    },
    {
      "id": "d7aac82fb790",
      "application": "birchanger",
      "date": "2025-11-25",
      "description": "24 HARRISONS - COMMENTS",
      "lat": 51.8832024,
      "lng": 0.189964,
      "geocoded": true,
      "geocode_error": null,
      "geocoded_location": "24 HARRISONS, Birchanger, Essex, UK"
    },
    {
      "id": "18bd8e6fec04",
      "application": "birchanger",
      "date": "2025-11-25",
      "description": "34 BAYFORD WAY - COMMENTS",
      "lat": 51.8934427,
      "lng": 0.1920397,
      "geocoded": true,
      "geocode_error": null,
      "geocoded_location": "34 BAYFORD WAY, Birchanger, Essex, UK"
    },
    {
      "id": "499156035cfc",
      "application": "birchanger",
      "date": "2025-11-25",
      "description": "65 BIRCHWOOD - COMMENTS",
      "lat": 51.8842103,
      "lng": 0.1927045,
      "geocoded": true,
      "geocode_error": null,
      "geocoded_location": "65 BIRCHWOOD, Birchanger, Essex, UK"
    },
    {
      "id": "7a6b2c6de95d",
      "application": "birchanger",
      "date": "2025-11-25",
      "description": "5 RECREATION GROUND - COMMENTS",
      "lat": 51.9014826,
      "lng": 0.1948798,
      "geocoded": true,
      "geocode_error": null,
      "geocoded_location": "5 RECREATION GROUND, Stansted Mountfitchet, Essex, UK"
    },
    {
      "id": "37dd60e3447e",
      "application": "stansted",
      "date": "2025-11-24",
      "description": "18 WOODLAND VIEW - COMMENTS",
      "lat": 51.9185305,
      "lng": 0.2223294,
      "geocoded": true,
      "geocode_error": null,
      "geocoded_location": "18 WOODLAND VIEW, Essex, UK"
    },
    {
      "id": "85176faae327",
      "application": "stansted",
      "date": "2025-11-24",
      "description": "18 MILL CLOSE - COMMENTS",
      "lat": 51.749853,
      "lng": 0.378477,
      "geocoded": true,
      "geocode_error": null,
      "geocoded_location": "18 MILL CLOSE, Essex, UK"
    },
    {
      "id": "3230dff77125",
      "application": "stansted",
      "date": "2025-11-24",
      "description": "LITTLE SPRINGS - COMMENTS",
      "lat": 51.898,
      "lng": 0.197,
      "geocoded": true,
      "geocode_error": null,
      "geocoded_location": "LITTLE SPRINGS (approx: stansted village)"
    },
    {
      "id": "3de6c55141a1",
      "application": "stansted",
      "date": "2025-11-24",
      "description": "54 STONEY COMMON - COMMENTS",
      "lat": 51.8975552,
      "lng": 0.1956976,
      "geocoded": true,
      "geocode_error": null,
      "geocoded_location": "54 STONEY COMMON, Stansted Mountfitchet, Essex, UK"
    },
    {
      "id": "4362cd1331e2",
      "application": "stansted",
      "date": "2025-11-24",
      "description": "145 CANNONS CLOSE - COMMENTS",
      "lat": 51.8775452,
      "lng": 0.8844257,
      "geocoded": true,
      "geocode_error": null,
      "geocoded_location": "145 CANNONS CLOSE, Essex, UK"
    },
    {
      "id": "2bfa71916c27",
      "application": "stansted",
      "date": "2025-11-22",
      "description": "1 WASHINGTON MEADS - COMMENTS",
      "lat": null,
      "lng": null,
      "geocoded": false,
      "geocode_error": "geocoding_failed"
    },
    {
      "id": "4974b5942ac3",
      "application": "stansted",
      "date": "2025-11-22",
      "description": "39 RAINSFORD ROAD - COMMENTS",
      "lat": 51.9103037,
      "lng": 0.1967682,
      "geocoded": true,
      "geocode_error": null,
      "geocoded_location": "39 RAINSFORD ROAD, Stansted Mountfitchet, Essex, UK"
    },
    {
      "id": "1a36dab470b2",
      "application": "stansted",
      "date": "2025-11-22",
      "description": "2 BAYFORD WAY - COMMENTS",
      "lat": 51.8934427,
      "lng": 0.1920397,
      "geocoded": true,
      "geocode_error": null,
      "geocoded_location": "2 BAYFORD WAY, Stansted Mountfitchet, Essex, UK"
    },
    {
      "id": "68d48a8c5ed1",
      "application": "birchanger",
      "date": "2025-11-25",
      "description": "303 BIRCHANGER LANE - COMMENTS",
      "lat": 51.8732119,
      "lng": 0.1952944,
      "geocoded": true,
      "geocode_error": null,
      "geocoded_location": "303 BIRCHANGER LANE, Birchanger, Essex, UK"
    },
    {
      "id": "81291e5799cf",
      "application": "birchanger",
      "date": "2025-11-25",
      "description": "331 BIRCHANGER LANE - COMMENTS",
      "lat": 51.8732119,
      "lng": 0.1952944,
      "geocoded": true,
      "geocode_error": null,
      "geocoded_location": "331 BIRCHANGER LANE, Birchanger, Essex, UK"
    },
    {
      "id": "1c571c775147",
      "application": "birchanger",
      "date": "2025-11-25",
      "description": "17 HIGH VIEW - COMMENTS",
      "lat": 51.885802,
      "lng": 0.1855276,
      "geocoded": true,
      "geocode_error": null,
      "geocoded_location": "17 HIGH VIEW, Birchanger, Essex, UK"
    },
    {
      "id": "1b3fb211fb09",
      "application": "stansted",
      "date": "2025-11-25",
      "description": "303 BIRCHANGER LANE - COMMENTS",
      "lat": 51.8732119,
      "lng": 0.1952944,
      "geocoded": true,
      "geocode_error": null,
      "geocoded_location": "303 BIRCHANGER LANE, Birchanger, Essex, UK"
    },
    {
      "id": "870755db7207",
      "application": "stansted",
      "date": "2025-11-25",
      "description": "331 BIRCHANGER LANE - COMMENTS",
      "lat": 51.8732119,
      "lng": 0.1952944,
      "geocoded": true,
      "geocode_error": null,
      "geocoded_location": "331 BIRCHANGER LANE, Birchanger, Essex, UK"
    },
    {
      "id": "41d54fe98b5b",
      "application": "stansted",
      "date": "2025-11-25",
      "description": "17 HIGH VIEW - COMMENTS",
      "lat": 51.885802,
      "lng": 0.1855276,
      "geocoded": true,
      "geocode_error": null,
      "geocoded_location": "17 HIGH VIEW, Birchanger, Essex, UK"
    },
    {
      "id": "7601faf60ff7",
      "application": "stansted",
      "date": "2025-11-25",
      "description": "69 BIRCHANGER LANE - COMMENTS",
      "lat": 51.8732119,
      "lng": 0.1952944,
      "geocoded": true,
      "geocode_error": null,
      "geocoded_location": "69 BIRCHANGER LANE, Birchanger, Essex, UK"
    },
    {
      "id": "3a76b820a09d",
      "application": "stansted",
      "date": "2025-11-24",
      "description": "3 BAYFORD WAY - COMMENTS",
      "lat": 51.8934427,
      "lng": 0.1920397,
      "geocoded": true,
      "geocode_error": null,
      "geocoded_location": "3 BAYFORD WAY, Stansted Mountfitchet, Essex, UK"
    },
    {
      "id": "08f14c972bb8",
      "application": "stansted",
      "date": "2025-11-24",
      "description": "6 OLD COURT HOUSE - COMMENTS",
      "lat": null,
      "lng": null,
      "geocoded": false,
      "geocode_error": "geocoding_failed"
    },
    {
      "id": "62a99b643880",
      "application": "stansted",
      "date": "2025-11-24",
      "description": "65 CHAPEL HILL - COMMENTS",
      "lat": 51.9037639,
      "lng": 0.193283,
      "geocoded": true,
      "geocode_error": null,
      "geocoded_location": "65 CHAPEL HILL, Stansted Mountfitchet, Essex, UK"
    },
    {
      "id": "2bbd4bf26187",
      "application": "birchanger",
      "date": "2025-11-25",
      "description": "69 BIRCHANGER LANE - COMMENTS",
      "lat": 51.8730968,
      "lng": 0.1959183,
      "geocoded": true,
      "geocode_error": null,
      "geocoded_location": "69 BIRCHANGER LANE, Birchanger, Essex, UK"
    },
    {
      "id": "123a0a94305c",
      "application": "birchanger",
      "date": "2025-11-25",
      "description": "22 BENTFIELD GARDENS - COMMENTS",
      "lat": 51.9055935,
      "lng": 0.1925602,
      "geocoded": true,
      "geocode_error": null,
      "geocoded_location": "22 BENTFIELD GARDENS, Stansted Mountfitchet, Essex, UK"
    },
    {
      "id": "223445d26f65",
      "application": "stansted",
      "date": "2025-11-25",
      "description": "22 BENTFIELD GARDENS - COMMENTS",
      "lat": 51.9055935,
      "lng": 0.1925602,
      "geocoded": true,
      "geocode_error": null,
      "geocoded_location": "22 BENTFIELD GARDENS, Stansted Mountfitchet, Essex, UK"
    },
    {
      "id": "994982ae24db",
      "application": "birchanger",
      "date": "2025-11-26",
      "description": "159 CANNONS CLOSE - COMMENTS",
      "lat": 51.8775452,
      "lng": 0.8844257,
      "geocoded": true,
      "geocode_error": null,
      "geocoded_location": "159 CANNONS CLOSE, Essex, UK"
    },
    {
      "id": "de7a1372274e",
      "application": "birchanger",
      "date": "2025-11-25",
      "description": "9 FELSTEAD CRESCENT - COMMENTS",
      "lat": 51.8942693,
      "lng": 0.1945805,
      "geocoded": true,
      "geocode_error": null,
      "geocoded_location": "9 FELSTEAD CRESCENT, Birchanger, Essex, UK"
    },
    {
      "id": "e1529ec39200",
      "application": "birchanger",
      "date": "2025-11-25",
      "description": "FIVE PENNIES - COMMENTS",
      "lat": 51.8825,
      "lng": 0.19,
      "geocoded": true,
      "geocode_error": null,
      "geocoded_location": "FIVE PENNIES (approx: birchanger village)"
    },
    {
      "id": "051742c56a75",
      "application": "birchanger",
      "date": "2025-11-25",
      "description": "3 HIGH VIEW - COMMENTS",
      "lat": 51.885802,
      "lng": 0.1855276,
      "geocoded": true,
      "geocode_error": null,
      "geocoded_location": "3 HIGH VIEW, Birchanger, Essex, UK"
    },
    {
      "id": "de497e86566b",
      "application": "birchanger",
      "date": "2025-11-25",
      "description": "1 BLUEBELL DRIVE - COMMENTS",
      "lat": 51.9130046,
      "lng": 0.1953529,
      "geocoded": true,
      "geocode_error": null,
      "geocoded_location": "1 BLUEBELL DRIVE, Stansted Mountfitchet, Essex, UK"
    },
    {
      "id": "dcf0ec8c4cff",
      "application": "stansted",
      "date": "2025-11-25",
      "description": "9 FELSTEAD CRESCENT - COMMENTS",
      "lat": 51.8942693,
      "lng": 0.1945805,
      "geocoded": true,
      "geocode_error": null,
      "geocoded_location": "9 FELSTEAD CRESCENT, Stansted Mountfitchet, Essex, UK"
    },
    {
      "id": "f49a14242054",
      "application": "stansted",
      "date": "2025-11-25",
      "description": "FIVE PENNIES - COMMENTS",
      "lat": 51.898,
      "lng": 0.197,
      "geocoded": true,
      "geocode_error": null,
      "geocoded_location": "FIVE PENNIES (approx: stansted village)"
    },
    {
      "id": "649806e2cb95",
      "application": "stansted",
      "date": "2025-11-25",
      "description": "3 HIGH VIEW - COMMENTS",
      "lat": 51.885802,
      "lng": 0.1855276,
      "geocoded": true,
      "geocode_error": null,
      "geocoded_location": "3 HIGH VIEW, Birchanger, Essex, UK"
    },
    {
      "id": "f3adca96a18d",
      "application": "stansted",
      "date": "2025-11-25",
      "description": "1 BLUEBELL DRIVE - COMMENTS",
      "lat": 51.9130046,
      "lng": 0.1953529,
      "geocoded": true,
      "geocode_error": null,
      "geocoded_location": "1 BLUEBELL DRIVE, Stansted Mountfitchet, Essex, UK"
    },
    {
      "id": "74d082075df6",
      "application": "birchanger",
      "date": "2025-11-25",
      "description": "39 BENTFIELD GARDENS - COMMENTS",
      "lat": 51.9055935,
      "lng": 0.1925602,
      "geocoded": true,
      "geocode_error": null,
      "geocoded_location": "39 BENTFIELD GARDENS, Stansted Mountfitchet, Essex, UK"
    },
    {
      "id": "6ee027a56fe6",
      "application": "birchanger",
      "date": "2025-11-25",
      "description": "3 BRADLEY COMMON - COMMENTS",
      "lat": 51.8864386,
      "lng": 0.1852188,
      "geocoded": true,
      "geocode_error": null,
      "geocoded_location": "3 BRADLEY COMMON, Birchanger, Essex, UK"
    },
    {
      "id": "c53f4e1dbf88",
      "application": "birchanger",
      "date": "2025-11-23",
      "description": "76 BIRCHANGER LANE - COMMENTS",
      "lat": 51.8732119,
      "lng": 0.1952944,
      "geocoded": true,
      "geocode_error": null,
      "geocoded_location": "76 BIRCHANGER LANE, Birchanger, Essex, UK"
    },
    {
      "id": "40bfeee00dd6",
      "application": "birchanger",
      "date": "2025-11-23",
      "description": "265 BIRCHANGER LANE - COMMENTS",
      "lat": 51.8732119,
      "lng": 0.1952944,
      "geocoded": true,
      "geocode_error": null,
      "geocoded_location": "265 BIRCHANGER LANE, Birchanger, Essex, UK"
    },
    {
      "id": "17d51a7f1181",
      "application": "birchanger",
      "date": "2025-11-23",
      "description": "17 BIRCHWOOD - COMMENTS",
      "lat": 51.8842103,
      "lng": 0.1927045,
      "geocoded": true,
      "geocode_error": null,
      "geocoded_location": "17 BIRCHWOOD, Birchanger, Essex, UK"
    },
    {
      "id": "bf687301d826",
      "application": "birchanger",
      "date": "2025-11-23",
      "description": "48 MILL ROAD - COMMENTS",
      "lat": 51.7883175,
      "lng": 0.3608154,
      "geocoded": true,
      "geocode_error": null,
      "geocoded_location": "48 MILL ROAD, Essex, UK"
    },
    {
      "id": "31889088f185",
      "application": "birchanger",
      "date": "2025-11-23",
      "description": "28 BENTFIELD END - COMMENTS",
      "lat": 51.9071937,
      "lng": 0.1905585,
      "geocoded": true,
      "geocode_error": null,
      "geocoded_location": "28 BENTFIELD END, Stansted Mountfitchet, Essex, UK"
    },
    {
      "id": "5c0c05c7cf8b",
      "application": "birchanger",
      "date": "2025-11-23",
      "description": "14A BRADLEY COMMON - COMMENTS",
      "lat": 51.8864386,
      "lng": 0.1852188,
      "geocoded": true,
      "geocode_error": null,
      "geocoded_location": "14A BRADLEY COMMON, Birchanger, Essex, UK"
    },
    {
      "id": "17c74a73280f",
      "application": "birchanger",
      "date": "2025-11-23",
      "description": "35 HARRISONS - COMMENTS",
      "lat": 51.8832024,
      "lng": 0.189964,
      "geocoded": true,
      "geocode_error": null,
      "geocoded_location": "35 HARRISONS, Birchanger, Essex, UK"
    },
    {
      "id": "3ce38ec9b70d",
      "application": "birchanger",
      "date": "2025-11-23",
      "description": "1 WRIGHTS PIECE - COMMENTS",
      "lat": 51.9339177,
      "lng": 0.2543374,
      "geocoded": true,
      "geocode_error": null,
      "geocoded_location": "1 WRIGHTS PIECE, Essex, UK"
    },
    {
      "id": "95fb5a5f5c24",
      "application": "birchanger",
      "date": "2025-11-23",
      "description": "DUNWOOD - COMMENTS",
      "lat": 51.8825,
      "lng": 0.19,
      "geocoded": true,
      "geocode_error": null,
      "geocoded_location": "DUNWOOD (approx: birchanger village)"
    },
    {
      "id": "3995c65d9fae",
      "application": "birchanger",
      "date": "2025-11-23",
      "description": "6 HILLSIDE COTTAGES - COMMENTS",
      "lat": 51.9071019,
      "lng": 1.1959158,
      "geocoded": true,
      "geocode_error": null,
      "geocoded_location": "HILLSIDE COTTAGES, Essex, UK"
    },
    {
      "id": "efe7bca6aca5",
      "application": "birchanger",
      "date": "2025-11-23",
      "description": "11 PEACHEY WALK - COMMENTS",
      "lat": 51.8939723,
      "lng": 0.20349,
      "geocoded": true,
      "geocode_error": null,
      "geocoded_location": "11 PEACHEY WALK, Birchanger, Essex, UK"
    },
    {
      "id": "7ab2f9d03b85",
      "application": "birchanger",
      "date": "2025-11-22",
      "description": "7 HIGH VIEW - COMMENTS",
      "lat": 51.885802,
      "lng": 0.1855276,
      "geocoded": true,
      "geocode_error": null,
      "geocoded_location": "7 HIGH VIEW, Birchanger, Essex, UK"
    },
    {
      "id": "790b6bcac991",
      "application": "stansted",
      "date": "2025-11-25",
      "description": "39 BENTFIELD GARDENS - COMMENTS",
      "lat": 51.9055935,
      "lng": 0.1925602,
      "geocoded": true,
      "geocode_error": null,
      "geocoded_location": "39 BENTFIELD GARDENS, Stansted Mountfitchet, Essex, UK"
    },
    {
      "id": "9c2c202b1312",
      "application": "birchanger",
      "date": "2025-11-23",
      "description": "16 GILBEY CRESCENT - COMMENTS",
      "lat": 51.9087338,
      "lng": 0.1948581,
      "geocoded": true,
      "geocode_error": null,
      "geocoded_location": "16 GILBEY CRESCENT, Stansted Mountfitchet, Essex, UK"
    },
    {
      "id": "b5909f3391f8",
      "application": "birchanger",
      "date": "2025-11-23",
      "description": "25 HARRISONS - COMMENTS",
      "lat": 51.882497,
      "lng": 0.1892625,
      "geocoded": true,
      "geocode_error": null,
      "geocoded_location": "25 HARRISONS, Birchanger, Essex, UK"
    },
    {
      "id": "a466396a95fa",
      "application": "stansted",
      "date": "2025-11-25",
      "description": "18 SPENCER CLOSE - COMMENTS",
      "lat": 51.9027324,
      "lng": 0.1941959,
      "geocoded": true,
      "geocode_error": null,
      "geocoded_location": "18 SPENCER CLOSE, Stansted Mountfitchet, Essex, UK"
    },
    {
      "id": "49f7d2774c22",
      "application": "stansted",
      "date": "2025-11-25",
      "description": "33 HAILES WOOD - COMMENTS",
      "lat": 51.9155935,
      "lng": 0.235078,
      "geocoded": true,
      "geocode_error": null,
      "geocoded_location": "33 HAILES WOOD, Essex, UK"
    },
    {
      "id": "0be862bbcd82",
      "application": "stansted",
      "date": "2025-11-25",
      "description": "11 PIMBLETT ROW - COMMENTS",
      "lat": 51.9296697,
      "lng": 0.2481016,
      "geocoded": true,
      "geocode_error": null,
      "geocoded_location": "11 PIMBLETT ROW, Essex, UK"
    },
    {
      "id": "1c94e612dec9",
      "application": "stansted",
      "date": "2025-11-25",
      "description": "LANGLEYS LODGE - COMMENTS",
      "lat": 51.898,
      "lng": 0.197,
      "geocoded": true,
      "geocode_error": null,
      "geocoded_location": "LANGLEYS LODGE (approx: stansted village)"
    },
    {
      "id": "985e381afe1a",
      "application": "stansted",
      "date": "2025-11-25",
      "description": "ROFFEY BARNS - COMMENTS",
      "lat": 51.898,
      "lng": 0.197,
      "geocoded": true,
      "geocode_error": null,
      "geocoded_location": "ROFFEY BARNS (approx: stansted village)"
    },
    {
      "id": "2cb4a2368c04",
      "application": "stansted",
      "date": "2025-11-25",
      "description": "5 MEADOW CLOSE - COMMENTS",
      "lat": 51.8596949,
      "lng": 0.4168453,
      "geocoded": true,
      "geocode_error": null,
      "geocoded_location": "5 MEADOW CLOSE, Essex, UK"
    },
    {
      "id": "e05ab0fda9f0",
      "application": "stansted",
      "date": "2025-11-25",
      "description": "25 HARRISONS - COMMENTS",
      "lat": 51.882497,
      "lng": 0.1892625,
      "geocoded": true,
      "geocode_error": null,
      "geocoded_location": "25 HARRISONS, Birchanger, Essex, UK"
    },
    {
      "id": "f70aed5e70a7",
      "application": "stansted",
      "date": "2025-11-25",
      "description": "212 BIRCHANGER LANE - COMMENTS",
      "lat": 51.8730968,
      "lng": 0.1959183,
      "geocoded": true,
      "geocode_error": null,
      "geocoded_location": "212 BIRCHANGER LANE, Birchanger, Essex, UK"
    },
    {
      "id": "68c3b7d691c1",
      "application": "birchanger",
      "date": "2025-11-26",
      "description": "33 PEACHEY WALK - COMMENTS",
      "lat": 51.8942609,
      "lng": 0.2005477,
      "geocoded": true,
      "geocode_error": null,
      "geocoded_location": "33 PEACHEY WALK, Birchanger, Essex, UK"
    },
    {
      "id": "72cfea755b2d",
      "application": "birchanger",
      "date": "2025-11-23",
      "description": "2 HARRISONS - COMMENTS",
      "lat": 51.882497,
      "lng": 0.1892625,
      "geocoded": true,
      "geocode_error": null,
      "geocoded_location": "2 HARRISONS, Birchanger, Essex, UK"
    },
    {
      "id": "bbbba924f28d",
      "application": "stansted",
      "date": "2025-11-25",
      "description": "14 HARRISONS - COMMENTS",
      "lat": 51.882497,
      "lng": 0.1892625,
      "geocoded": true,
      "geocode_error": null,
      "geocoded_location": "14 HARRISONS, Birchanger, Essex, UK"
    },