{
  "letters": [
    {
      "id": "56451c001c55",
      "application": "birchanger",
      "date": "2025-11-21",
      "description": "21 WOODFIELDS - COMMENT",
      "lat": 51.9018639,
      "lng": 0.1965533,
      "geocoded": true,
      "geocode_error": null,
      "geocoded_location": "21 WOODFIELDS, Stansted Mountfitchet, Essex, UK"
    },
    {
      "id": "13bf200e4cbe",
      "application": "birchanger",
      "date": "2025-11-21",
      "description": "26 BENTFIELD ROAD - COMMENTS",
      "lat": 51.9047401,
      "lng": 0.1918673,
      "geocoded": true,
      "geocode_error": null,
      "geocoded_location": "26 BENTFIELD ROAD, Stansted Mountfitchet, Essex, UK"
    },
    {
      "id": "62de69162cfb",
      "application": "birchanger",
      "date": "2025-11-21",
      "description": "15 PATMORE ROAD - COMMENTS",
      "lat": 51.8955163,
      "lng": 0.196597,
      "geocoded": true,
      "geocode_error": null,
      "geocoded_location": "15 PATMORE ROAD, Birchanger, Essex, UK"
    },
    {
      "id": "1cbf5c05682a",
      "application": "birchanger",
      "date": "2025-11-21",
      "description": "25 BENTFIELD GARDENS - COMMENTS",
      "lat": 51.9055935,
      "lng": 0.1925602,
      "geocoded": true,
      "geocode_error": null,
      "geocoded_location": "25 BENTFIELD GARDENS, Stansted Mountfitchet, Essex, UK"
    },
    {
      "id": "ec21c2d4cb2d",
      "application": "birchanger",
      "date": "2025-11-21",
      "description": "219 BIRCHANGER LANE - COMMENTS",
      "lat": 51.8730968,
      "lng": 0.1959183,
      "geocoded": true,
      "geocode_error": null,
      "geocoded_location": "219 BIRCHANGER LANE, Birchanger, Essex, UK"
    },
    {
      "id": "91e9a0f74c4d",
      "application": "birchanger",
      "date": "2025-11-21",
      "description": "29 ST JOHNS ROAD - COMMENTS",
      "lat": 51.7002828,
      "lng": 0.1082835,
      "geocoded": true,
      "geocode_error": null,
      "geocoded_location": "29 ST JOHNS ROAD, Essex, UK"
    },
    {
      "id": "e3864976a341",
      "application": "birchanger",
      "date": "2025-11-21",
      "description": "9 QUEENS CLOSE - COMMENTS",
      "lat": 51.9096769,
      "lng": 0.1981846,
      "geocoded": true,
      "geocode_error": null,
      "geocoded_location": "9 QUEENS CLOSE, Stansted Mountfitchet, Essex, UK"
    },
    {
      "id": "3967dc736cdb",
      "application": "birchanger",
      "date": "2025-11-21",
      "description": "ACORNS - COMMENTS",
      "lat": 51.8825,
      "lng": 0.19,
      "geocoded": true,
      "geocode_error": null,
      "geocoded_location": "ACORNS (approx: birchanger village)"
    },
    {
      "id": "98db3e0da284",
      "application": "birchanger",
      "date": "2025-11-21",
      "description": "3 BLYTHWOOD GARDENS - COMMENTS",
      "lat": 51.9010669,
      "lng": 0.1900144,
      "geocoded": true,
      "geocode_error": null,
      "geocoded_location": "3 BLYTHWOOD GARDENS, Stansted Mountfitchet, Essex, UK"
    },
    {
      "id": "4238adfcf726",
      "application": "birchanger",
      "date": "2025-11-21",
      "description": "18 BAYFORD WAY - COMMENTS",
      "lat": 51.8946072,
      "lng": 0.1925026,
      "geocoded": true,
      "geocode_error": null,
      "geocoded_location": "18 BAYFORD WAY, Birchanger, Essex, UK"
    },
    {
      "id": "63610a170ee5",
      "application": "birchanger",
      "date": "2025-11-20",
      "description": "1 FELSTEAD CRESCENT - COMMENTS",
      "lat": 51.8942693,
      "lng": 0.1945805,
      "geocoded": true,
      "geocode_error": null,
      "geocoded_location": "1 FELSTEAD CRESCENT, Birchanger, Essex, UK"
    },
    {
      "id": "0ea6472dd076",
      "application": "birchanger",
      "date": "2025-11-20",
      "description": "55 WOODFIELDS - COMMENTS",
      "lat": 51.9018639,
      "lng": 0.1965533,
      "geocoded": true,
      "geocode_error": null,
      "geocoded_location": "55 WOODFIELDS, Stansted Mountfitchet, Essex, UK"
    },
    {
      "id": "cd4b8f4db323",
      "application": "birchanger",
      "date": "2025-11-20",
      "description": "2 CARTERS DRIVE - COMMENTS",
      "lat": 51.8943642,
      "lng": 0.1941488,
      "geocoded": true,
      "geocode_error": null,
      "geocoded_location": "2 CARTERS DRIVE, Birchanger, Essex, UK"
    },
    {
      "id": "7b5a51212ebc",
      "application": "birchanger",
      "date": "2025-11-20",
      "description": "26 HEATH ROW - COMMENTS",
      "lat": 51.8326037,
      "lng": 1.116546,
      "geocoded": true,
      "geocode_error": null,
      "geocoded_location": "26 HEATH ROW, Essex, UK"
    },
    {
      "id": "6ae1d45e8f74",
      "application": "birchanger",
      "date": "2025-11-20",
      "description": "ACORNS- COMMENTS",
      "lat": 51.8825,
      "lng": 0.19,
      "geocoded": true,
      "geocode_error": null,
      "geocoded_location": "ACORNS (approx: birchanger village)"
    },
    {
      "id": "b27c306ba080",
      "application": "birchanger",
      "date": "2025-11-20",
      "description": "34 HAMPTON ROAD - COMMENTS",
      "lat": 51.8959795,
      "lng": 0.1992127,
      "geocoded": true,
      "geocode_error": null,
      "geocoded_location": "34 HAMPTON ROAD, Birchanger, Essex, UK"
    },
    {
      "id": "5bf31a08549d",
      "application": "birchanger",
      "date": "2025-11-20",
      "description": "2 QUEENS CLOSE - COMMENTS",
      "lat": 51.9096769,
      "lng": 0.1981846,
      "geocoded": true,
      "geocode_error": null,
      "geocoded_location": "2 QUEENS CLOSE, Stansted Mountfitchet, Essex, UK"
    },
    {
      "id": "3d0a88666300",
      "application": "birchanger",
      "date": "2025-11-20",
      "description": "30 NEWELL ROAD - COMMENTS",
      "lat": 51.8937601,
      "lng": 0.1944066,
      "geocoded": true,
      "geocode_error": null,
      "geocoded_location": "30 NEWELL ROAD, Birchanger, Essex, UK"
    },
    {
      "id": "715b7f2be249",
      "application": "birchanger",
      "date": "2025-11-20",
      "description": "33 HIGH VIEW - COMMENTS",
      "lat": 51.885802,
      "lng": 0.1855276,
      "geocoded": true,
      "geocode_error": null,
      "geocoded_location": "33 HIGH VIEW, Birchanger, Essex, UK"
    },
    {
      "id": "610cba1e6775",
      "application": "birchanger",
      "date": "2025-11-20",
      "description": "10 PARK ROAD - COMMENTS",
      "lat": 51.8734235,
      "lng": 0.1943197,
      "geocoded": true,
      "geocode_error": null,
      "geocoded_location": "10 PARK ROAD, Birchanger, Essex, UK"
    },
    {
      "id": "c6beccc5d573",
      "application": "birchanger",
      "date": "2025-11-20",
      "description": "9 PEACHEY WALK - COMMENTS",
      "lat": 51.8942609,
      "lng": 0.2005477,
      "geocoded": true,
      "geocode_error": null,
      "geocoded_location": "9 PEACHEY WALK, Birchanger, Essex, UK"
    },
    {
      "id": "fcebc5d7bdf5",
      "application": "birchanger",
      "date": "2025-11-20",
      "description": "11 THORPE ROAD - COMMENTS",
      "lat": 51.8085311,
      "lng": 1.1548903,
      "geocoded": true,
      "geocode_error": null,
      "geocoded_location": "11 THORPE ROAD, Essex, UK"
    },
    {
      "id": "cbb0e4e9b253",
      "application": "birchanger",
      "date": "2025-11-20",
      "description": "38 BAYFORD WAY - COMMENTS",
      "lat": 51.8946072,
      "lng": 0.1925026,
      "geocoded": true,
      "geocode_error": null,
      "geocoded_location": "38 BAYFORD WAY, Birchanger, Essex, UK"
    },
    {
      "id": "188bacc2929c",
      "application": "birchanger",
      "date": "2025-11-20",
      "description": "26 NEWELL ROAD - COMMENTS",
      "lat": 51.8937601,
      "lng": 0.1944066,
      "geocoded": true,
      "geocode_error": null,
      "geocoded_location": "26 NEWELL ROAD, Birchanger, Essex, UK"
    },
    {
      "id": "cbc1a53d1ccd",
      "application": "birchanger",
      "date": "2025-11-19",
      "description": "18 HIGH VIEW - COMMENTS",
      "lat": 51.885802,
      "lng": 0.1855276,
      "geocoded": true,
      "geocode_error": null,
      "geocoded_location": "18 HIGH VIEW, Birchanger, Essex, UK"
    },
    {
      "id": "979e78c39d56",
      "application": "birchanger",
      "date": "2025-11-19",
      "description": "46 THE STOW - COMMENTS",
      "lat": 51.7758214,
      "lng": 0.1145585,
      "geocoded": true,
      "geocode_error": null,
      "geocoded_location": "46 THE STOW, Essex, UK"
    },
    {
      "id": "0456d3088cbf",
      "application": "birchanger",
      "date": "2025-11-19",
      "description": "39 HIGH VIEW - COMMENTS",
      "lat": 51.885802,
      "lng": 0.1855276,
      "geocoded": true,
      "geocode_error": null,
      "geocoded_location": "39 HIGH VIEW, Birchanger, Essex, UK"
    },
    {
      "id": "1ac23bd6282b",
      "application": "birchanger",
      "date": "2025-11-19",
      "description": "26 LIVINGS WAY - COMMENTS",
      "lat": 51.8944529,
      "lng": 0.1972588,
      "geocoded": true,
      "geocode_error": null,
      "geocoded_location": "26 LIVINGS WAY, Birchanger, Essex, UK"
    },
    {
      "id": "ff4d807b28ac",
      "application": "birchanger",
      "date": "2025-11-19",
      "description": "30 NEWELL ROAD - COMMENTS",
      "lat": 51.8937601,
      "lng": 0.1944066,
      "geocoded": true,
      "geocode_error": null,
      "geocoded_location": "30 NEWELL ROAD, Birchanger, Essex, UK"
    },
    {
      "id": "79d6ce4417ce",
      "application": "birchanger",
      "date": "2025-11-19",
      "description": "4 HILLSIDE END - COMMENTS",
      "lat": 51.8873788,
      "lng": 0.1852741,
      "geocoded": true,
      "geocode_error": null,
      "geocoded_location": "4 HILLSIDE END, Birchanger, Essex, UK"
    },
    {
      "id": "e753e47e1e4f",
      "application": "birchanger",
      "date": "2025-11-19",
      "description": "47 SUNNYSIDE - COMMENTS",
      "lat": 51.9015859,
      "lng": 0.1974121,
      "geocoded": true,
      "geocode_error": null,
      "geocoded_location": "47 SUNNYSIDE, Stansted Mountfitchet, Essex, UK"
    },
    {
      "id": "0526bca86deb",
      "application": "birchanger",
      "date": "2025-11-19",
      "description": "38 BAYFORD WAY - COMMENTS",
      "lat": 51.8946072,
      "lng": 0.1925026,
      "geocoded": true,
      "geocode_error": null,
      "geocoded_location": "38 BAYFORD WAY, Birchanger, Essex, UK"
    },
    {
      "id": "681dfa8acbaf",
      "application": "birchanger",
      "date": "2025-11-19",
      "description": "8 CHURCHILL CORNER - COMMENTS",
      "lat": 51.8938234,
      "lng": 0.2037604,
      "geocoded": true,
      "geocode_error": null,
      "geocoded_location": "CHURCHILL CORNER, Birchanger, Essex, UK"
    },
    {
      "id": "448aaaaea3dc",
      "application": "birchanger",
      "date": "2025-11-19",
      "description": "46 BLYTHWOOD GARDENS - COMMENTS",
      "lat": 51.9010669,
      "lng": 0.1900144,
      "geocoded": true,
      "geocode_error": null,
      "geocoded_location": "46 BLYTHWOOD GARDENS, Stansted Mountfitchet, Essex, UK"
    },
    {
      "id": "234153ed3a20",
      "application": "birchanger",
      "date": "2025-11-19",
      "description": "42 HAMPTON ROAD - COMMENTS",
      "lat": 51.8959795,
      "lng": 0.1992127,
      "geocoded": true,
      "geocode_error": null,
      "geocoded_location": "42 HAMPTON ROAD, Birchanger, Essex, UK"
    },
    {
      "id": "ed81923e3c8a",
      "application": "birchanger",
      "date": "2025-11-18",
      "description": "18 BRADLEY COMMON - COMMENTS",
      "lat": 51.8864386,
      "lng": 0.1852188,
      "geocoded": true,
      "geocode_error": null,
      "geocoded_location": "18 BRADLEY COMMON, Birchanger, Essex, UK"
    },
    {
      "id": "8d071d76bd51",
      "application": "birchanger",
      "date": "2025-11-18",
      "description": "1 HILLSIDE END - COMMENTS",
      "lat": 51.8873788,
      "lng": 0.1852741,
      "geocoded": true,
      "geocode_error": null,
      "geocoded_location": "1 HILLSIDE END, Birchanger, Essex, UK"
    },
    {
      "id": "2333e490aedb",
      "application": "birchanger",
      "date": "2025-11-18",
      "description": "93 BIRCHANGER LANE - COMMENTS",
      "lat": 51.8730968,
      "lng": 0.1959183,
      "geocoded": true,
      "geocode_error": null,
      "geocoded_location": "93 BIRCHANGER LANE, Birchanger, Essex, UK"
    },
    {
      "id": "f3274e27bb22",
      "application": "birchanger",
      "date": "2025-11-18",
      "description": "2 SHAW CLOSE - COMMENTS",
      "lat": 51.8965647,
      "lng": 0.19697,
      "geocoded": true,
      "geocode_error": null,
      "geocoded_location": "2 SHAW CLOSE, Stansted Mountfitchet, Essex, UK"
    },
    {
      "id": "5a50a1d090f2",
      "application": "birchanger",
      "date": "2025-11-18",
      "description": "223 BIRCHANGER LANE - COMMENTS",
      "lat": 51.8730968,
      "lng": 0.1959183,
      "geocoded": true,
      "geocode_error": null,
      "geocoded_location": "223 BIRCHANGER LANE, Birchanger, Essex, UK"
    },
    {
      "id": "ac617f56e894",
      "application": "birchanger",
      "date": "2025-11-17",
      "description": "15 BRADLEY COMMON - COMMENTS",
      "lat": 51.8864386,
      "lng": 0.1852188,
      "geocoded": true,
      "geocode_error": null,
      "geocoded_location": "15 BRADLEY COMMON, Birchanger, Essex, UK"
    },
    {
      "id": "914812f3e52b",
      "application": "birchanger",
      "date": "2025-11-17",
      "description": "13 HARRISONS - COMMENTS",
      "lat": 51.882497,
      "lng": 0.1892625,
      "geocoded": true,
      "geocode_error": null,
      "geocoded_location": "13 HARRISONS, Birchanger, Essex, UK"
    },
    {
      "id": "3b60d2dfec4e",
      "application": "birchanger",
      "date": "2025-11-17",
      "description": "40 WOODLAND VIEW - COMMENTS",
      "lat": 51.9185305,
      "lng": 0.2223294,
      "geocoded": true,
      "geocode_error": null,
      "geocoded_location": "40 WOODLAND VIEW, Essex, UK"
    },
    {
      "id": "267208e3758c",
      "application": "birchanger",
      "date": "2025-11-17",
      "description": "HERNE HOUSE, 68 BIRCHANGER LANE - 1 COMMENTS",
      "lat": 51.8732119,
      "lng": 0.1952944,
      "geocoded": true,
      "geocode_error": null,
      "geocoded_location": "68 BIRCHANGER LANE, Birchanger, Essex, UK"
    },
    {
      "id": "f7618a2616fb",
      "application": "birchanger",
      "date": "2025-11-17",
      "description": "HERNE HOUSE, 68 BIRCHANGER LANE - 2 COMMENTS",
      "lat": 51.8732119,
      "lng": 0.1952944,
      "geocoded": true,
      "geocode_error": null,
      "geocoded_location": "68 BIRCHANGER LANE, Birchanger, Essex, UK"
    },
    {
      "id": "2093ac5f67bf",
      "application": "birchanger",
      "date": "2025-11-17",
      "description": "28 PALMER CLOSE - COMMENTS",
      "lat": 51.8941736,
      "lng": 0.202891,
      "geocoded": true,
      "geocode_error": null,
      "geocoded_location": "28 PALMER CLOSE, Birchanger, Essex, UK"
    },
    {
      "id": "d6be1362be20",
      "application": "birchanger",
      "date": "2025-11-17",
      "description": "32 BIRCHANGER LANE - COMMENTS",
      "lat": 51.8730968,
      "lng": 0.1959183,
      "geocoded": true,
      "geocode_error": null,
      "geocoded_location": "32 BIRCHANGER LANE, Birchanger, Essex, UK"
    },
    {
      "id": "db081a44b3ce",
      "application": "birchanger",
      "date": "2025-11-17",
      "description": "2 GREENFIELDS - COMMENTS",
      "lat": 51.9035085,
      "lng": 0.1954159,
      "geocoded": true,
      "geocode_error": null,
      "geocoded_location": "2 GREENFIELDS, Stansted Mountfitchet, Essex, UK"
    },
    {
      "id": "ed1f6d3a9633",
      "application": "birchanger",
      "date": "2025-11-17",
      "description": "HOLLY HOUSE - COMMENTS",
      "lat": 51.8825,
      "lng": 0.19,
      "geocoded": true,
      "geocode_error": null,
      "geocoded_location": "HOLLY HOUSE (approx: birchanger village)"
    },
    {
      "id": "b01a15bab4c1",
      "application": "birchanger",
      "date": "2025-11-17",
      "description": "24 OLD BELL CLOSE - COMMENTS",
      "lat": 51.8992882,
      "lng": 0.1928404,
      "geocoded": true,
      "geocode_error": null,
      "geocoded_location": "24 OLD BELL CLOSE, Stansted Mountfitchet, Essex, UK"
    },
    {
      "id": "820082b3a454",
      "application": "birchanger",
      "date": "2025-11-17",
      "description": "MOLE LODGE - COMMENTS",
      "lat": 51.8825,
      "lng": 0.19,
      "geocoded": true,
      "geocode_error": null,
      "geocoded_location": "MOLE LODGE (approx: birchanger village)"
    },
    {
      "id": "54a891999a2e",
      "application": "birchanger",
      "date": "2025-11-17",
      "description": "18 BRADLEY COMMON - COMMENTS",
      "lat": 51.8864386,
      "lng": 0.1852188,
      "geocoded": true,
      "geocode_error": null,
      "geocoded_location": "18 BRADLEY COMMON, Birchanger, Essex, UK"
    },
    {
      "id": "f95290dd7a1e",
      "application": "birchanger",
      "date": "2025-11-17",
      "description": "30 BIRCHANGER LANE - COMMENTS",
      "lat": 51.8730968,
      "lng": 0.1959183,
      "geocoded": true,
      "geocode_error": null,
      "geocoded_location": "30 BIRCHANGER LANE, Birchanger, Essex, UK"
    },
    {
      "id": "513a3f428478",
      "application": "birchanger",
      "date": "2025-11-16",
      "description": "HOLLY HOUSE - COMMENTS",
      "lat": 51.8825,
      "lng": 0.19,
      "geocoded": true,
      "geocode_error": null,
      "geocoded_location": "HOLLY HOUSE (approx: birchanger village)"
    },
    {
      "id": "0e1166703d49",
      "application": "birchanger",
      "date": "2025-11-16",
      "description": "40 WOODLAND VIEW - COMMENTS",
      "lat": 51.9185305,
      "lng": 0.2223294,
      "geocoded": true,
      "geocode_error": null,
      "geocoded_location": "40 WOODLAND VIEW, Essex, UK"
    },
    {
      "id": "a4751165b3bd",
      "application": "birchanger",
      "date": "2025-11-16",
      "description": "9 OLD BELL CLOSE - COMMENTS",
      "lat": 51.8992882,
      "lng": 0.1928404,
      "geocoded": true,
      "geocode_error": null,
      "geocoded_location": "9 OLD BELL CLOSE, Stansted Mountfitchet, Essex, UK"
    },
    {
      "id": "a5707a5365fd",
      "application": "birchanger",
      "date": "2025-11-16",
      "description": "24 OLD BELL CLOSE - COMMENTS",
      "lat": 51.8992882,
      "lng": 0.1928404,
      "geocoded": true,
      "geocode_error": null,
      "geocoded_location": "24 OLD BELL CLOSE, Stansted Mountfitchet, Essex, UK"
    },
    {
      "id": "8d8f302c0739",
      "application": "birchanger",
      "date": "2025-11-16",
      "description": "86 BIRCHANGER LANE - COMMENTS",
      "lat": 51.8730968,
      "lng": 0.1959183,
      "geocoded": true,
      "geocode_error": null,
      "geocoded_location": "86 BIRCHANGER LANE, Birchanger, Essex, UK"
    },
    {
      "id": "d709d227eab1",
      "application": "birchanger",
      "date": "2025-11-16",
      "description": "11 HARRISONS - COMMENTS",
      "lat": 51.882497,
      "lng": 0.1892625,
      "geocoded": true,
      "geocode_error": null,
      "geocoded_location": "11 HARRISONS, Birchanger, Essex, UK"
    },
    {
      "id": "3f064daf604c",
      "application": "birchanger",
      "date": "2025-11-16",
      "description": "BOREEN - COMMENTS",
      "lat": 51.8825,
      "lng": 0.19,
      "geocoded": true,
      "geocode_error": null,
      "geocoded_location": "BOREEN (approx: birchanger village)"
    },
    {
      "id": "a6804593c0a3",
      "application": "birchanger",
      "date": "2025-11-16",
      "description": "41B HIGH VIEW - COMMENTS",
      "lat": 51.885802,
      "lng": 0.1855276,
      "geocoded": true,
      "geocode_error": null,
      "geocoded_location": "41B HIGH VIEW, Birchanger, Essex, UK"
    },
    {
      "id": "9d3af7bef790",
      "application": "birchanger",
      "date": "2025-11-15",
      "description": "28 PALMER CLOSE - COMMENTS",
      "lat": 51.8941736,
      "lng": 0.202891,
      "geocoded": true,
      "geocode_error": null,
      "geocoded_location": "28 PALMER CLOSE, Birchanger, Essex, UK"
    },
    {
      "id": "c8fc7b422a66",
      "application": "birchanger",
      "date": "2025-11-15",
      "description": "91 BIRCHANGER LANE - COMMENTS",
      "lat": 51.8730968,
      "lng": 0.1959183,
      "geocoded": true,
      "geocode_error": null,
      "geocoded_location": "91 BIRCHANGER LANE, Birchanger, Essex, UK"
    },
    {
      "id": "c6d9f2e47159",
      "application": "birchanger",
      "date": "2025-11-15",
      "description": "2 CORN ROAD - COMMENTS",
      "lat": 51.9231918,
      "lng": 0.2564613,
      "geocoded": true,
      "geocode_error": null,
      "geocoded_location": "CORN ROAD, Essex, UK"
    },
    {
      "id": "9c7d8ae36c06",
      "application": "birchanger",
      "date": "2025-11-15",
      "description": "11A CHAPEL HILL - COMMENTS",
      "lat": 51.9037639,
      "lng": 0.193283,
      "geocoded": true,
      "geocode_error": null,
      "geocoded_location": "11A CHAPEL HILL, Stansted Mountfitchet, Essex, UK"
    },
    {
      "id": "42f710ffb036",
      "application": "birchanger",
      "date": "2025-11-15",
      "description": "26 HIGH VIEW - COMMENTS",
      "lat": 51.885802,
      "lng": 0.1855276,
      "geocoded": true,
      "geocode_error": null,
      "geocoded_location": "26 HIGH VIEW, Birchanger, Essex, UK"
    },
    {
      "id": "2dc8a37f6e5c",
      "application": "birchanger",
      "date": "2025-11-14",
      "description": "12 WOODFIELDS - COMMENTS",
      "lat": 51.9018639,
      "lng": 0.1965533,
      "geocoded": true,
      "geocode_error": null,
      "geocoded_location": "12 WOODFIELDS, Stansted Mountfitchet, Essex, UK"
    },
    {
      "id": "76cdec2f818f",
      "application": "birchanger",
      "date": "2025-11-14",
      "description": "217 BIRCHANGER LANE - COMMENTS",
      "lat": 51.8730968,
      "lng": 0.1959183,
      "geocoded": true,
      "geocode_error": null,
      "geocoded_location": "217 BIRCHANGER LANE, Birchanger, Essex, UK"
    },
    {
      "id": "010d71885aa8",
      "application": "birchanger",
      "date": "2025-11-13",
      "description": "217 BIRCHANGER LANE - COMMENTS",
      "lat": 51.8730968,
      "lng": 0.1959183,
      "geocoded": true,
      "geocode_error": null,
      "geocoded_location": "217 BIRCHANGER LANE, Birchanger, Essex, UK"
    },
    {
      "id": "393923f8fe24",
      "application": "stansted",
      "date": "2025-11-21",
      "description": "21 WOODFIELDS - COMMENT",
      "lat": 51.9018639,
      "lng": 0.1965533,
      "geocoded": true,
      "geocode_error": null,
      "geocoded_location": "21 WOODFIELDS, Stansted Mountfitchet, Essex, UK"
    },
    {
      "id": "0116a2e03282",
      "application": "stansted",
      "date": "2025-11-21",
      "description": "33 HIGH VIEW - COMMENTS",
      "lat": 51.885802,
      "lng": 0.1855276,
      "geocoded": true,
      "geocode_error": null,
      "geocoded_location": "33 HIGH VIEW, Birchanger, Essex, UK"
    },
    {
      "id": "3712e2a67451",
      "application": "stansted",
      "date": "2025-11-21",
      "description": "26 BENTFIELD ROAD - COMMENTS",
      "lat": 51.9047401,
      "lng": 0.1918673,
      "geocoded": true,
      "geocode_error": null,
      "geocoded_location": "26 BENTFIELD ROAD, Stansted Mountfitchet, Essex, UK"
    },
    {
      "id": "037b314c892c",
      "application": "stansted",
      "date": "2025-11-21",
      "description": "25 BENTFIELD GARDENS - COMMENTS",
      "lat": 51.9055935,
      "lng": 0.1925602,
      "geocoded": true,
      "geocode_error": null,
      "geocoded_location": "25 BENTFIELD GARDENS, Stansted Mountfitchet, Essex, UK"
    },
    {
      "id": "4bccb300fd8d",
      "application": "stansted",
      "date": "2025-11-21",
      "description": "219 BIRCHANGER LANE - COMMENTS",
      "lat": 51.8730968,
      "lng": 0.1959183,
      "geocoded": true,
      "geocode_error": null,
      "geocoded_location": "219 BIRCHANGER LANE, Birchanger, Essex, UK"
    },
    {
      "id": "a7b677b5215d",
      "application": "stansted",
      "date": "2025-11-21",
      "description": "9 QUEENS CLOSE - COMMENTS",
      "lat": 51.9096769,
      "lng": 0.1981846,
      "geocoded": true,
      "geocode_error": null,
      "geocoded_location": "9 QUEENS CLOSE, Stansted Mountfitchet, Essex, UK"
    },
    {
      "id": "35d53829fe68",
      "application": "stansted",
      "date": "2025-11-21",
      "description": "ACORNS - COMMENTS",
      "lat": 51.898,
      "lng": 0.197,
      "geocoded": true,
      "geocode_error": null,
      "geocoded_location": "ACORNS (approx: stansted village)"
    },
    {
      "id": "5f767ea4cba6",
      "application": "stansted",
      "date": "2025-11-21",
      "description": "3 BLYTHWOOD GARDENS - COMMENTS",
      "lat": 51.9013944,
      "lng": 0.1905997,
      "geocoded": true,
      "geocode_error": null,
      "geocoded_location": "3 BLYTHWOOD GARDENS, Stansted Mountfitchet, Essex, UK"
    },
    {
      "id": "691b8db8b98a",
      "application": "stansted",
      "date": "2025-11-21",
      "description": "18 BAYFORD WAY - COMMENTS",
      "lat": 51.8946072,
      "lng": 0.1925026,
      "geocoded": true,
      "geocode_error": null,
      "geocoded_location": "18 BAYFORD WAY, Stansted Mountfitchet, Essex, UK"
    },
    {
      "id": "f99ddf7f586c",
      "application": "stansted",
      "date": "2025-11-20",
      "description": "2 CARTERS DRIVE - COMMENTS",
      "lat": 51.8943642,
      "lng": 0.1941488,
      "geocoded": true,
      "geocode_error": null,
      "geocoded_location": "2 CARTERS DRIVE, Stansted Mountfitchet, Essex, UK"
    },
    {
      "id": "f0452cf4085f",
      "application": "stansted",
      "date": "2025-11-20",
      "description": "2 MILLSIDE - COMMENTS",
      "lat": null,
      "lng": null,
      "geocoded": false,
      "geocode_error": "geocoding_failed"
    },
    {
      "id": "5c2a00726a11",
      "application": "stansted",
      "date": "2025-11-20",
      "description": "26 HEATH ROW - COMMENTS",
      "lat": 51.8326037,
      "lng": 1.116546,
      "geocoded": true,
      "geocode_error": null,
      "geocoded_location": "26 HEATH ROW, Essex, UK"
    },
    {
      "id": "0ddbdf582955",
      "application": "stansted",
      "date": "2025-11-20",
      "description": "ACORNS- COMMENTS",
      "lat": 51.898,
      "lng": 0.197,
      "geocoded": true,
      "geocode_error": null,
      "geocoded_location": "ACORNS (approx: stansted village)"
    },
    {
      "id": "9f2c548cdbbf",
      "application": "stansted",
      "date": "2025-11-20",
      "description": "34 HAMPTON ROAD - COMMENTS",
      "lat": 51.8959795,
      "lng": 0.1992127,
      "geocoded": true,
      "geocode_error": null,
      "geocoded_location": "34 HAMPTON ROAD, Stansted Mountfitchet, Essex, UK"
    },
    {
      "id": "5798902908d1",
      "application": "stansted",
      "date": "2025-11-20",
      "description": "1 THE MEADS - COMMENTS",
      "lat": 51.9768771,
      "lng": 0.1761565,
      "geocoded": true,
      "geocode_error": null,
      "geocoded_location": "1 THE MEADS, Essex, UK"
    },
    {
      "id": "91336c5691c5",
      "application": "stansted",
      "date": "2025-11-20",
      "description": "2 QUEENS CLOSE - COMMENTS",
      "lat": 51.9096769,
      "lng": 0.1981846,
      "geocoded": true,
      "geocode_error": null,
      "geocoded_location": "2 QUEENS CLOSE, Stansted Mountfitchet, Essex, UK"
    },
    {
      "id": "3084fdf3c159",
      "application": "stansted",
      "date": "2025-11-20",
      "description": "30 NEWELL ROAD - COMMENTS",
      "lat": 51.8937601,
      "lng": 0.1944066,
      "geocoded": true,
      "geocode_error": null,
      "geocoded_location": "30 NEWELL ROAD, Stansted Mountfitchet, Essex, UK"
    },
    {
      "id": "8f5504172e0a",
      "application": "stansted",
      "date": "2025-11-20",
      "description": "10 PARK ROAD - COMMENTS",
      "lat": 51.8998821,
      "lng": 0.2001617,
      "geocoded": true,
      "geocode_error": null,
      "geocoded_location": "10 PARK ROAD, Stansted Mountfitchet, Essex, UK"
    },
    {
      "id": "c3e0f74cdc40",
      "application": "stansted",
      "date": "2025-11-20",
      "description": "9 PEACHEY WALK - COMMENTS",
      "lat": 51.8942609,
      "lng": 0.2005477,
      "geocoded": true,
      "geocode_error": null,
      "geocoded_location": "9 PEACHEY WALK, Stansted Mountfitchet, Essex, UK"
    },
    {
      "id": "6e32a89df62d",
      "application": "stansted",
      "date": "2025-11-20",
      "description": "11 THORPE ROAD - COMMENTS",
      "lat": 51.8085311,
      "lng": 1.1548903,
      "geocoded": true,
      "geocode_error": null,
      "geocoded_location": "11 THORPE ROAD, Essex, UK"
    },
    {
      "id": "cdda8ebff5c1",
      "application": "stansted",
      "date": "2025-11-20",
      "description": "38 BAYFORD WAY - COMMENTS",
      "lat": 51.8946072,
      "lng": 0.1925026,
      "geocoded": true,
      "geocode_error": null,
      "geocoded_location": "38 BAYFORD WAY, Stansted Mountfitchet, Essex, UK"
    },
    {
      "id": "3de24b27d141",
      "application": "stansted",
      "date": "2025-11-20",
      "description": "26 NEWELL ROAD - COMMENTS",
      "lat": 51.8937601,
      "lng": 0.1944066,
      "geocoded": true,
      "geocode_error": null,
      "geocoded_location": "26 NEWELL ROAD, Stansted Mountfitchet, Essex, UK"
    },
    {
      "id": "9e63af945800",
      "application": "stansted",
      "date": "2025-11-19",
      "description": "18 HIGH VIEW - COMMENTS",
      "lat": 51.885802,
      "lng": 0.1855276,
      "geocoded": true,
      "geocode_error": null,
      "geocoded_location": "18 HIGH VIEW, Birchanger, Essex, UK"
    },
    {
      "id": "ccf4c724a3fb",
      "application": "stansted",
      "date": "2025-11-19",
      "description": "46 THE STOW - COMMENTS",
      "lat": 51.7758214,
      "lng": 0.1145585,
      "geocoded": true,
      "geocode_error": null,
      "geocoded_location": "46 THE STOW, Essex, UK"
    },
    {
      "id": "fb856e405023",
      "application": "stansted",
      "date": "2025-11-19",
      "description": "26 LIVINGS WAY - COMMENTS",
      "lat": 51.8944529,
      "lng": 0.1972588,
      "geocoded": true,
      "geocode_error": null,
      "geocoded_location": "26 LIVINGS WAY, Stansted Mountfitchet, Essex, UK"
    },
    {
      "id": "926c311baa27",
      "application": "stansted",
      "date": "2025-11-19",
      "description": "30 NEWELL ROAD - COMMENTS",
      "lat": 51.8937601,
      "lng": 0.1944066,
      "geocoded": true,
      "geocode_error": null,
      "geocoded_location": "30 NEWELL ROAD, Stansted Mountfitchet, Essex, UK"
    },
    {
      "id": "2f0a89c86df2",
      "application": "stansted",
      "date": "2025-11-19",
      "description": "4 HILLSIDE END - COMMENTS",
      "lat": 51.8873788,
      "lng": 0.1852741,
      "geocoded": true,
      "geocode_error": null,
      "geocoded_location": "4 HILLSIDE END, Birchanger, Essex, UK"
    },
    {
      "id": "1795939327e0",
      "application": "stansted",
      "date": "2025-11-19",
      "description": "47 SUNNYSIDE - COMMENTS",
      "lat": 51.9015859,
      "lng": 0.1974121,
      "geocoded": true,
      "geocode_error": null,
      "geocoded_location": "47 SUNNYSIDE, Stansted Mountfitchet, Essex, UK"
    },
    {
      "id": "a0b6487c10c6",
      "application": "stansted",
      "date": "2025-11-19",
      "description": "38 BAYFORD WAY - COMMENTS",
      "lat": 51.8946072,
      "lng": 0.1925026,
      "geocoded": true,
      "geocode_error": null,
      "geocoded_location": "38 BAYFORD WAY, Stansted Mountfitchet, Essex, UK"
    },
    {
      "id": "bce0a62b6d9a",
      "application": "stansted",
      "date": "2025-11-19",
      "description": "8 CHURCHILL CORNER - COMMENTS",
      "lat": 51.8938234,
      "lng": 0.2037604,
      "geocoded": true,
      "geocode_error": null,
      "geocoded_location": "CHURCHILL CORNER, Stansted Mountfitchet, Essex, UK"
    },
    {
      "id": "04c56ef6659c",
      "application": "stansted",
      "date": "2025-11-19",
      "description": "46 BLYTHWOOD GARDENS - COMMENTS",
      "lat": 51.9013944,
      "lng": 0.1905997,
      "geocoded": true,
      "geocode_error": null,
      "geocoded_location": "46 BLYTHWOOD GARDENS, Stansted Mountfitchet, Essex, UK"
    },
    {
      "id": "49b7aee27721",
      "application": "stansted",
      "date": "2025-11-19",
      "description": "42 HAMPTON ROAD - COMMENTS",
      "lat": 51.8959795,
      "lng": 0.1992127,
      "geocoded": true,
      "geocode_error": null,
      "geocoded_location": "42 HAMPTON ROAD, Stansted Mountfitchet, Essex, UK"
    },
    {
      "id": "920849f05fd4",
      "application": "stansted",
      "date": "2025-11-19",
      "description": "9 GROVE HILL - COMMENTS",
      "lat": 51.903574,
      "lng": 0.203468,
      "geocoded": true,
      "geocode_error": null,
      "geocoded_location": "9 GROVE HILL, Stansted Mountfitchet, Essex, UK"
    },
    {
      "id": "8c94065c474f",
      "application": "stansted",
      "date": "2025-11-19",
      "description": "15 PATMORE ROAD - COMMENTS",
      "lat": 51.8955163,
      "lng": 0.196597,
      "geocoded": true,
      "geocode_error": null,
      "geocoded_location": "15 PATMORE ROAD, Stansted Mountfitchet, Essex, UK"
    },
    {
      "id": "77bba65cea4f",
      "application": "stansted",
      "date": "2025-11-19",
      "description": "29 ST JOHNS ROAD - COMMENTS",
      "lat": 51.7002828,
      "lng": 0.1082835,
      "geocoded": true,
      "geocode_error": null,
      "geocoded_location": "29 ST JOHNS ROAD, Essex, UK"
    },
    {
      "id": "2ee51760fda7",
      "application": "stansted",
      "date": "2025-11-18",
      "description": "18 BRADLEY COMMON - COMMENTS",
      "lat": 51.8864386,
      "lng": 0.1852188,
      "geocoded": true,
      "geocode_error": null,
      "geocoded_location": "18 BRADLEY COMMON, Birchanger, Essex, UK"
    },
    {
      "id": "c08c707a79f8",
      "application": "stansted",
      "date": "2025-11-18",
      "description": "35 PEACHEY WALK - COMMENTS",
      "lat": 51.8942609,
      "lng": 0.2005477,
      "geocoded": true,
      "geocode_error": null,
      "geocoded_location": "35 PEACHEY WALK, Stansted Mountfitchet, Essex, UK"
    },
    {
      "id": "80dc62a19171",
      "application": "stansted",
      "date": "2025-11-18",
      "description": "7 PEACHEY WALK - COMMENTS",
      "lat": 51.8942609,
      "lng": 0.2005477,
      "geocoded": true,
      "geocode_error": null,
      "geocoded_location": "7 PEACHEY WALK, Stansted Mountfitchet, Essex, UK"
    },
    {
      "id": "f00c0c5a92df",
      "application": "stansted",
      "date": "2025-11-18",
      "description": "2 SHAW CLOSE - COMMENTS",
      "lat": 51.8965647,
      "lng": 0.19697,
      "geocoded": true,
      "geocode_error": null,
      "geocoded_location": "2 SHAW CLOSE, Stansted Mountfitchet, Essex, UK"
    },
    {
      "id": "4e7419ec433d",
      "application": "stansted",
      "date": "2025-11-18",
      "description": "223 BIRCHANGER LANE - COMMENTS",
      "lat": 51.8730968,
      "lng": 0.1959183,
      "geocoded": true,
      "geocode_error": null,
      "geocoded_location": "223 BIRCHANGER LANE, Birchanger, Essex, UK"
    },
    {
      "id": "a270609708b0",
      "application": "stansted",
      "date": "2025-11-17",
      "description": "55 WOODFIELDS - COMMENTS",
      "lat": 51.9018639,
      "lng": 0.1965533,
      "geocoded": true,
      "geocode_error": null,
      "geocoded_location": "55 WOODFIELDS, Stansted Mountfitchet, Essex, UK"
    },
    {
      "id": "ea59e94a01a7",
      "application": "stansted",
      "date": "2025-11-17",
      "description": "15 BRADLEY COMMON - COMMENTS",
      "lat": 51.8864386,
      "lng": 0.1852188,
      "geocoded": true,
      "geocode_error": null,
      "geocoded_location": "15 BRADLEY COMMON, Birchanger, Essex, UK"
    },
    {
      "id": "da73428acd33",
      "application": "stansted",
      "date": "2025-11-17",
      "description": "13 HARRISONS - COMMENTS",
      "lat": 51.882497,
      "lng": 0.1892625,
      "geocoded": true,
      "geocode_error": null,
      "geocoded_location": "13 HARRISONS, Birchanger, Essex, UK"
    },
    {
      "id": "a105d552d423",
      "application": "stansted",
      "date": "2025-11-17",
      "description": "HERNE HOUSE, 68 BIRCHANGER LANE - 2 COMMENTS",
      "lat": 51.8730968,
      "lng": 0.1959183,
      "geocoded": true,
      "geocode_error": null,
      "geocoded_location": "68 BIRCHANGER LANE, Birchanger, Essex, UK"
    },
    {
      "id": "c9961e73c479",
      "application": "stansted",
      "date": "2025-11-17",
      "description": "HERNE HOUSE, 68 BIRCHANGER LANE - 1 COMMENTS",
      "lat": 51.8730968,
      "lng": 0.1959183,
      "geocoded": true,
      "geocode_error": null,
      "geocoded_location": "68 BIRCHANGER LANE, Birchanger, Essex, UK"
    },
    {
      "id": "f8b27fd85ba0",
      "application": "stansted",
      "date": "2025-11-17",
      "description": "40 WOODLAND VIEW - COMMENTS",
      "lat": 51.9185305,
      "lng": 0.2223294,
      "geocoded": true,
      "geocode_error": null,
      "geocoded_location": "40 WOODLAND VIEW, Essex, UK"
    },
    {
      "id": "b96751505013",
      "application": "stansted",
      "date": "2025-11-17",
      "description": "11A CHAPEL HILL - COMMENTS",
      "lat": 51.9026878,
      "lng": 0.1964086,
      "geocoded": true,
      "geocode_error": null,
      "geocoded_location": "11A CHAPEL HILL, Stansted Mountfitchet, Essex, UK"
    },
    {
      "id": "7cb7140ae108",
      "application": "stansted",
      "date": "2025-11-17",
      "description": "32 BIRCHANGER LANE - COMMENTS",
      "lat": 51.8730968,
      "lng": 0.1959183,
      "geocoded": true,
      "geocode_error": null,
      "geocoded_location": "32 BIRCHANGER LANE, Birchanger, Essex, UK"
    },
    {
      "id": "08c0bf3c51ac",
      "application": "stansted",
      "date": "2025-11-17",
      "description": "HOLLY HOUSE - COMMENTS",
      "lat": 51.898,
      "lng": 0.197,
      "geocoded": true,
      "geocode_error": null,
      "geocoded_location": "HOLLY HOUSE (approx: stansted village)"
    },
    {
      "id": "4af93eae26af",
      "application": "stansted",
      "date": "2025-11-17",
      "description": "24 OLD BELL CLOSE - COMMENTS",
      "lat": 51.8992882,
      "lng": 0.1928404,
      "geocoded": true,
      "geocode_error": null,
      "geocoded_location": "24 OLD BELL CLOSE, Stansted Mountfitchet, Essex, UK"
    },
    {
      "id": "d3f4e6c25be2",
      "application": "stansted",
      "date": "2025-11-17",
      "description": "MOLE LODGE - COMMENTS",
      "lat": 51.898,
      "lng": 0.197,
      "geocoded": true,
      "geocode_error": null,
      "geocoded_location": "MOLE LODGE (approx: stansted village)"
    },
    {
      "id": "5adb212f2190",
      "application": "stansted",
      "date": "2025-11-17",
      "description": "22 OLD BELL CLOSE - COMMENTS",
      "lat": 51.8992882,
      "lng": 0.1928404,
      "geocoded": true,
      "geocode_error": null,
      "geocoded_location": "22 OLD BELL CLOSE, Stansted Mountfitchet, Essex, UK"
    },
    {
      "id": "0cbd0770d326",
      "application": "stansted",
      "date": "2025-11-17",
      "description": "1 HILLSIDE END - COMMENTS",
      "lat": 51.8873788,
      "lng": 0.1852741,
      "geocoded": true,
      "geocode_error": null,
      "geocoded_location": "1 HILLSIDE END, Birchanger, Essex, UK"
    },
    {
      "id": "6b90dcdc6e22",
      "application": "stansted",
      "date": "2025-11-16",
      "description": "HOLLY HOUSE - COMMENTS",
      "lat": 51.898,
      "lng": 0.197,
      "geocoded": true,
      "geocode_error": null,
      "geocoded_location": "HOLLY HOUSE (approx: stansted village)"
    },
    {
      "id": "9aedc9723b3b",
      "application": "stansted",
      "date": "2025-11-16",
      "description": "40 WOODLAND VIEW - COMMENTS",
      "lat": 51.9185305,
      "lng": 0.2223294,
      "geocoded": true,
      "geocode_error": null,
      "geocoded_location": "40 WOODLAND VIEW, Essex, UK"
    },
    {
      "id": "de94f6d8f98f",
      "application": "stansted",
      "date": "2025-11-16",
      "description": "9 OLD BELL CLOSE - COMMENTS",
      "lat": 51.8992882,
      "lng": 0.1928404,
      "geocoded": true,
      "geocode_error": null,
      "geocoded_location": "9 OLD BELL CLOSE, Stansted Mountfitchet, Essex, UK"
    },
    {
      "id": "40dd8ec52b43",
      "application": "stansted",
      "date": "2025-11-16",
      "description": "24 OLD BELL CLOSE - COMMENTS",
      "lat": 51.8992882,
      "lng": 0.1928404,
      "geocoded": true,
      "geocode_error": null,
      "geocoded_location": "24 OLD BELL CLOSE, Stansted Mountfitchet, Essex, UK"
    },
    {
      "id": "455630bf8c35",
      "application": "stansted",
      "date": "2025-11-16",
      "description": "86 BIRCHANGER LANE - COMMENTS",
      "lat": 51.8730968,
      "lng": 0.1959183,
      "geocoded": true,
      "geocode_error": null,
      "geocoded_location": "86 BIRCHANGER LANE, Birchanger, Essex, UK"
    },
    {
      "id": "7cf7d8b13f26",
      "application": "stansted",
      "date": "2025-11-16",
      "description": "11 HARRISONS - COMMENTS",
      "lat": 51.882497,
      "lng": 0.1892625,
      "geocoded": true,
      "geocode_error": null,
      "geocoded_location": "11 HARRISONS, Birchanger, Essex, UK"
    },
    {
      "id": "9da80ea3fe80",
      "application": "stansted",
      "date": "2025-11-16",
      "description": "41B HIGH VIEW - COMMENTS",
      "lat": 51.885802,
      "lng": 0.1855276,
      "geocoded": true,
      "geocode_error": null,
      "geocoded_location": "41B HIGH VIEW, Birchanger, Essex, UK"
    },
    {
      "id": "f161ad5b4625",
      "application": "stansted",
      "date": "2025-11-16",
      "description": "66 BIRCHANGER LANE - COMMENTS",
      "lat": 51.8730968,
      "lng": 0.1959183,
      "geocoded": true,
      "geocode_error": null,
      "geocoded_location": "66 BIRCHANGER LANE, Birchanger, Essex, UK"
    },
    {
      "id": "405072f3c6a9",
      "application": "stansted",
      "date": "2025-11-15",
      "description": "28 PALMER CLOSE - COMMENTS",
      "lat": 51.8951035,
      "lng": 0.2024074,
      "geocoded": true,
      "geocode_error": null,
      "geocoded_location": "28 PALMER CLOSE, Stansted Mountfitchet, Essex, UK"
    },
    {
      "id": "c88ac5050f2c",
      "application": "stansted",
      "date": "2025-11-15",
      "description": "91 BIRCHANGER LANE - COMMENTS",
      "lat": 51.8730968,
      "lng": 0.1959183,
      "geocoded": true,
      "geocode_error": null,
      "geocoded_location": "91 BIRCHANGER LANE, Birchanger, Essex, UK"
    },
    {
      "id": "8ca342299878",
      "application": "stansted",
      "date": "2025-11-15",
      "description": "2 CORN ROAD - COMMENTS",
      "lat": 51.9231918,
      "lng": 0.2564613,
      "geocoded": true,
      "geocode_error": null,
      "geocoded_location": "CORN ROAD, Essex, UK"
    },
    {
      "id": "a363eb4bedca",
      "application": "stansted",
      "date": "2025-11-15",
      "description": "26 HIGH VIEW - COMMENTS",
      "lat": 51.885802,
      "lng": 0.1855276,
      "geocoded": true,
      "geocode_error": null,
      "geocoded_location": "26 HIGH VIEW, Birchanger, Essex, UK"
    },
    {
      "id": "0dc6153f3096",
      "application": "stansted",
      "date": "2025-11-14",
      "description": "12 WOODFIELDS - COMMENTS",
      "lat": 51.9018639,
      "lng": 0.1965533,
      "geocoded": true,
      "geocode_error": null,
      "geocoded_location": "12 WOODFIELDS, Stansted Mountfitchet, Essex, UK"
    },
    {
      "id": "5b5c394725e9",
      "application": "stansted",
      "date": "2025-11-13",
      "description": "55 WOODFIELDS - COMMENTS",
      "lat": 51.9018639,
      "lng": 0.1965533,
      "geocoded": true,
      "geocode_error": null,
      "geocoded_location": "55 WOODFIELDS, Stansted Mountfitchet, Essex, UK"
    },
    {
      "id": "a9eb38ae9022",
      "application": "birchanger",
      "date": "2025-11-24",
      "description": "THE SPINNEY - COMMENT",
      "lat": null,
      "lng": null,
      "geocoded": false,
      "geocode_error": null
    },
    {
      "id": "6d615b42bcfb",
      "application": "birchanger",
      "date": "2025-11-21",
      "description": "36 SHEPHALL WAY - COMMENT",
      "lat": null,
      "lng": null,
      "geocoded": false,
      "geocode_error": null
    }
  ],
  "last_updated": "2025-11-24T10:05:12.891612"
}